{"Stores":[{"Id":3170,"ExternalId":101,"Name":"DRONNINGENSGT. MOSS","ShortName":"DRONNINGENSGT. MOSS","Address":"Dronningensgate 7, 1530 MOSS","Telephone":"4769252304","Latitude":59.435913,"Longitude":10.665085,"CurrentState":"Open","OpeningHours":["9:00-20:00","9:00-20:00","9:00-20:00","9:00-20:00","9:00-20:00","9:00-18:00","0:00-0:00"],"Tag":""},{"Id":3171,"ExternalId":102,"Name":"LILLESTRØM TORG","ShortName":"LILLESTRØM TORG","Address":"LILLESTRØM TORG, 2000  LILLESTRØM","Telephone":"4763816280","Latitude":59.957132,"Longitude":11.048981,"CurrentState":"Open","OpeningHours":["9:00-21:00","9:00-21:00","9:00-21:00","9:00-21:00","9:00-21:00","9:00-18:00","0:00-0:00"],"Tag":""},{"Id":3172,"ExternalId":103,"Name":"ASKIM JB ST","ShortName":"ASKIM JB ST","Address":"JERNBANEGT. 5, 1830 ASKIM","Telephone":"4769881318","Latitude":59.581659,"Longitude":11.162654,"CurrentState":"Open","OpeningHours":["6:00-22:00","6:00-22:00","6:00-22:00","6:00-22:00","6:00-22:00","7:15-20:00","9:00-20:00"],"Tag":""},{"Id":3173,"ExternalId":105,"Name":"BERGEN JB.STASJON","ShortName":"BERGEN JB.STASJON","Address":"STRØMGATEN 2, 5015 BERGEN","Telephone":"4755318789","Latitude":60.388732,"Longitude":5.329717,"CurrentState":"Open","OpeningHours":["6:00-23:00","6:00-23:00","6:00-23:00","6:00-23:00","6:00-23:00","7:00-23:00","7:00-23:00"],"Tag":""},{"Id":3174,"ExternalId":108,"Name":"Jessheim Storsenter","ShortName":"Jessheim Storsenter","Address":"RINGVN., 2050 JESSHEIM","Telephone":"4763970374","Latitude":60.147271,"Longitude":11.170384,"CurrentState":"Open","OpeningHours":["10:00-21:00","10:00-21:00","10:00-21:00","10:00-21:00","10:00-21:00","10:00-19:00","0:00-0:00"],"Tag":""},{"Id":3175,"ExternalId":109,"Name":"SENTRALSYKEHUSET","ShortName":"SENTRALSYKEHUSET","Address":"UNIVERSITETSSYKEH., 1474 NORDBYHAGEN","Telephone":"4767903423","Latitude":59.933561,"Longitude":10.996526,"CurrentState":"Open","OpeningHours":["6:00-22:00","6:00-22:00","6:00-22:00","6:00-22:00","6:00-22:00","9:00-20:00","9:00-20:00"],"Tag":""},{"Id":3178,"ExternalId":112,"Name":"SOLA ANKOMST PLAN 2","ShortName":"SOLA ANKOMST PLAN 2","Address":"4055 STAVANGER LUFTHAVN","Telephone":"4751656812","Latitude":58.876573,"Longitude":5.627021,"CurrentState":"Open","OpeningHours":["3:00-22:00","3:00-22:00","3:00-22:00","3:00-22:00","3:00-22:00","3:00-20:00","3:00-23:00"],"Tag":""},{"Id":3179,"ExternalId":114,"Name":"HELIKOPTERTERMINALEN","ShortName":"HELIKOPTERTERMINALEN","Address":"4056 STAVANGER LUFTHAVN","Telephone":"4751652646","Latitude":58.876573,"Longitude":5.627021,"CurrentState":"Open","OpeningHours":["6:00-21:00","6:00-21:00","6:00-21:00","6:00-21:00","6:00-21:00","9:00-18:00","9:00-18:00"],"Tag":""},{"Id":3180,"ExternalId":116,"Name":"STORGT. 2","ShortName":"STORGT. 2","Address":"STORG. 2, 1441 DRØBAK","Telephone":"4764939275","Latitude":59.662914,"Longitude":10.629675,"CurrentState":"Open","OpeningHours":["9:00-21:00","9:00-21:00","9:00-21:00","9:00-21:00","9:00-22:00","9:00-22:00","10:00-16:00"],"Tag":""},{"Id":3181,"ExternalId":118,"Name":"HEDMARK S.SYKEHUS","ShortName":"HEDMARK S.SYKEHUS","Address":"2418 ELVERUM","Telephone":"4762410175","Latitude":60.877997,"Longitude":11.571722,"CurrentState":"Open","OpeningHours":["7:00-20:00","7:00-20:00","7:00-20:00","7:00-20:00","7:00-20:00","10:00-18:00","10:00-18:00"],"Tag":""},{"Id":3182,"ExternalId":122,"Name":"ØSTSIDEN LØENVEIEN 6","ShortName":"ØSTSIDEN LØENVEIEN 6","Address":"LØENVEIEN 6, 1653 SELLEBAKK","Telephone":"4769346246","Latitude":59.227525,"Longitude":10.995686,"CurrentState":"Open","OpeningHours":["9:00-21:00","9:00-21:00","9:00-21:00","9:00-21:00","9:00-21:00","9:00-19:00","12:00-19:00"],"Tag":""},{"Id":3183,"ExternalId":123,"Name":"CITY NORD BODØ","ShortName":"CITY NORD BODØ","Address":"Stormyra, 8013  BODØ","Telephone":"4775508036","Latitude":67.27773,"Longitude":14.42274,"CurrentState":"Open","OpeningHours":["8:00-22:00","8:00-22:00","8:00-22:00","8:00-22:00","8:00-22:00","8:00-20:00","0:00-0:00"],"Tag":""},{"Id":3184,"ExternalId":126,"Name":"MARTN SENTERET","ShortName":"MARTN SENTERET","Address":"TORGGT. 3, 2408 ELVERUM","Telephone":"4762412724","Latitude":60.884588,"Longitude":11.562176,"CurrentState":"Open","OpeningHours":["8:30-21:00","8:30-21:00","8:30-21:00","8:30-21:00","8:30-21:00","9:00-19:00","0:00-0:00"],"Tag":""},{"Id":3185,"ExternalId":127,"Name":"SANDVIKA VEST","ShortName":"SANDVIKA VEST","Address":"C.MONETS A.14, 1338 SANDVIKA","Telephone":"4767559607","Latitude":59.890293,"Longitude":10.521238,"CurrentState":"Open","OpeningHours":["9:00-21:30","9:00-21:30","9:00-21:30","9:00-21:30","9:00-21:30","9:00-18:30","10:00-20:00"],"Tag":""},{"Id":3186,"ExternalId":128,"Name":"TRYSIL","ShortName":"TRYSIL","Address":"STORVEIEN 3, 2420 TRYSIL","Telephone":"4762451561","Latitude":61.315766,"Longitude":12.262383,"CurrentState":"Open","OpeningHours":["9:00-20:00","9:00-20:00","9:00-20:00","9:00-20:00","9:00-20:00","9:00-20:00","11:00-20:00"],"Tag":""},{"Id":3187,"ExternalId":129,"Name":"ØSS CICIGNONGT. 19","ShortName":"ØSS CICIGNONGT. 19","Address":"CICIGNONGT.19, 1600 FREDRIKSTAD","Telephone":"4769310797","Latitude":59.20788,"Longitude":10.946378,"CurrentState":"Open","OpeningHours":["7:00-20:30","7:00-20:30","7:00-20:30","7:00-20:30","7:00-20:30","9:00-18:00","10:00-18:00"],"Tag":""},{"Id":3188,"ExternalId":132,"Name":"RUTEBILST FREDRIKSTAD","ShortName":"RUTEBILST FREDRIKSTA","Address":"BROCHGT.7-10, 1607 FREDRIKSTAD","Telephone":"4769316041","Latitude":59.214406,"Longitude":10.939472,"CurrentState":"Open","OpeningHours":["6:45-20:00","6:45-20:00","6:45-20:00","6:45-20:00","6:45-20:00","9:00-18:00","0:00-0:00"],"Tag":""},{"Id":3189,"ExternalId":133,"Name":"ØSTERÅS KJØPESENTER","ShortName":"ØSTERÅS KJØPESENTER","Address":"OTTO RUGESVEI 80, 1361 ØSTERÅS","Telephone":"4767144382","Latitude":59.944589,"Longitude":10.60717,"CurrentState":"Open","OpeningHours":["9:00-19:00","9:00-19:00","9:00-19:00","9:00-19:00","9:00-19:00","9:00-18:00","0:00-0:00"],"Tag":""},{"Id":3190,"ExternalId":135,"Name":"FREDRIKSTAD JBS","ShortName":"FREDRIKSTAD JBS","Address":"ST.OLAVSGT. 2, 1606 FREDRIKSTAD","Telephone":"4769315510","Latitude":59.208274,"Longitude":10.95047,"CurrentState":"Open","OpeningHours":["5:50-20:40","5:50-20:40","5:50-20:40","5:50-20:40","5:50-20:40","8:00-18:00","12:00-19:40"],"Tag":""},{"Id":3191,"ExternalId":136,"Name":"Sandefjord Lufthavn Innland","ShortName":"Sandefj. Lufth. Innland","Address":"TORP, 3233 SANDEFJORD","Telephone":"4733452262","Latitude":59.179043,"Longitude":10.252532,"CurrentState":"Open","OpeningHours":["5:00-0:30","5:00-0:30","5:00-0:30","5:00-0:30","5:00-0:30","5:00-0:30","5:00-0:30"],"Tag":""},{"Id":3192,"ExternalId":137,"Name":"Sandefjord Lufthavn Utland","ShortName":"Sandefj. Lufth. Utland","Address":"TORPVEIEN 130, 3241 SANDEFJORD","Telephone":"4733467380","Latitude":59.179043,"Longitude":10.252532,"CurrentState":"Open","OpeningHours":["5:00-23:00","5:00-23:00","5:00-23:00","5:00-23:00","5:00-23:00","5:00-23:00","5:00-23:00"],"Tag":""},{"Id":3193,"ExternalId":138,"Name":"Torvbyen, Fredrikstad ","ShortName":"TORVBYEN FR.STAD","Address":"Brochsgt. 7-11, 1607 FREDRIKSTAD","Telephone":"4769308490","Latitude":59.214406,"Longitude":10.939472,"CurrentState":"Open","OpeningHours":["9:00-20:00","9:00-20:00","9:00-20:00","9:00-20:00","9:00-20:00","9:00-18:00","0:00-0:00"],"Tag":""},{"Id":3194,"ExternalId":139,"Name":"LIERTOPPEN Kjøpesenter, bygg C","ShortName":"LIERTOPPEN KJØPESENT","Address":"DRAMMENSV.201,PB 293, 3421 LIERSKOGEN","Telephone":"4732852988","Latitude":59.81099,"Longitude":10.30686,"CurrentState":"Open","OpeningHours":["10:00-21:00","10:00-21:00","10:00-21:00","10:00-21:00","10:00-21:00","10:00-18:00","0:00-0:00"],"Tag":""},{"Id":3195,"ExternalId":140,"Name":"HAMAR SYKEHUS","ShortName":"HAMAR SYKEHUS","Address":"2326 HAMAR","Telephone":"4762531201","Latitude":60.798488839945,"Longitude":11.0721938498318,"CurrentState":"Open","OpeningHours":["7:00-19:00","7:00-19:00","7:00-19:00","7:00-19:00","7:00-19:00","10:00-18:00","10:00-18:00"],"Tag":""},{"Id":3196,"ExternalId":141,"Name":"St. OLAV AKUTTEN ","ShortName":"ST. OLAV AKUTTEN ","Address":"St.Olavs Hospital, 7006 TRONDHEIM","Telephone":"4773532470","Latitude":63.42084,"Longitude":10.38808,"CurrentState":"Open","OpeningHours":["6:30-23:00","6:30-23:00","6:30-23:00","6:30-23:00","6:30-23:00","9:00-21:00","9:00-21:00"],"Tag":""},{"Id":3197,"ExternalId":144,"Name":"ULLEVÅL SYKEHUS, Sentralblokka","ShortName":"ULLEVÅL SYKEHUS, SEN","Address":"Kirkeveien 166, 450 OSLO","Telephone":"4722694010","Latitude":59.93636,"Longitude":10.7347,"CurrentState":"Open","OpeningHours":["7:00-20:00","7:00-20:00","7:00-20:00","7:00-20:00","7:00-20:00","9:00-19:00","10:00-19:00"],"Tag":""},{"Id":3198,"ExternalId":145,"Name":"Down Town senter ","ShortName":"DOWN TOWN SENTER ","Address":"Kulltangvegen 70, 3933 PORSGRUNN","Telephone":"4735557811","Latitude":59.1305646,"Longitude":9.6333834,"CurrentState":"Open","OpeningHours":["8:30-20:00","8:30-20:00","8:30-20:00","8:30-20:00","8:30-20:00","8:30-18:00","0:00-0:00"],"Tag":""},{"Id":3199,"ExternalId":146,"Name":"Ringside ","ShortName":"RINGSIDE ","Address":"Biskop Gunnerusgt. 2, 154 OSLO","Telephone":"4722414370","Latitude":59.9122,"Longitude":10.7482,"CurrentState":"Open","OpeningHours":[null,null,null,null,null,null,null],"Tag":""},{"Id":3200,"ExternalId":148,"Name":"GULSKOGSENTERET","ShortName":"GULSKOGSENTERET","Address":"PROF.SMITHSA.58, 3048 DRAMMEN","Telephone":"4732894875","Latitude":59.74157,"Longitude":10.160557,"CurrentState":"Open","OpeningHours":["10:00-21:00","10:00-21:00","10:00-21:00","10:00-21:00","10:00-21:00","9:00-19:00","0:00-0:00"],"Tag":""},{"Id":3201,"ExternalId":151,"Name":"SØRLANDSSENTERET","ShortName":"SØRLANDSSENTERET","Address":"BARSTØLVN. 29B, 4636 Kristiansand","Telephone":"4738097180","Latitude":58.17718,"Longitude":8.12845,"CurrentState":"Open","OpeningHours":["10:00-21:00","10:00-21:00","10:00-21:00","10:00-21:00","10:00-21:00","10:00-19:00","0:00-0:00"],"Tag":""},{"Id":3202,"ExternalId":152,"Name":"STRANDTORGET","ShortName":"STRANDTORGET","Address":"STRANDTORGET, 2609 LILLEHAMMER","Telephone":"4761260925","Latitude":61.103571,"Longitude":10.44427,"CurrentState":"Open","OpeningHours":["9:00-20:00","9:00-20:00","9:00-20:00","9:00-20:00","9:00-20:00","9:00-18:00","0:00-0:00"],"Tag":""},{"Id":3203,"ExternalId":153,"Name":"HAMAR JB.ST.","ShortName":"HAMAR JB.ST.","Address":"JERNBANESTASJONEN, 2317 HAMAR","Telephone":"4762522474","Latitude":60.7915,"Longitude":11.0771,"CurrentState":"Open","OpeningHours":["5:50-20:10","5:50-20:10","5:50-20:10","5:50-20:10","5:50-20:10","8:30-18:10","9:00-20:10"],"Tag":""},{"Id":3204,"ExternalId":154,"Name":"MAXI HAMAR","ShortName":"MAXI HAMAR","Address":"ASLAK BOLTSG.48, 2316 HAMAR","Telephone":"4748262892","Latitude":60.799584,"Longitude":11.047239,"CurrentState":"Open","OpeningHours":["9:00-21:00","9:00-21:00","9:00-21:00","9:00-21:00","9:00-21:00","9:00-18:00","0:00-0:00"],"Tag":""},{"Id":3205,"ExternalId":156,"Name":"GJØVIK SYKEHUS","ShortName":"GJØVIK SYKEHUS","Address":"KYRRE GREPPSG11, 2819 GJØVIK","Telephone":"4761171644","Latitude":60.802979,"Longitude":10.681364,"CurrentState":"Open","OpeningHours":["7:00-20:00","7:00-20:00","7:00-20:00","7:00-20:00","7:00-20:00","10:00-18:00","10:00-18:00"],"Tag":""},{"Id":3206,"ExternalId":159,"Name":"HEIMDAL JERNBANESTAS","ShortName":"HEIMDAL JB.ST.","Address":"SØBSTADVEIEN 1, 7080 HEIMDAL","Telephone":"4772846510","Latitude":63.3522358,"Longitude":10.3563533,"CurrentState":"Open","OpeningHours":["8:00-22:00","8:00-22:00","8:00-22:00","8:00-22:00","8:00-22:00","8:30-20:00","10:00-22:00"],"Tag":""},{"Id":3207,"ExternalId":161,"Name":"SMIETORGET","ShortName":"SMIETORGET","Address":"SMIEGT. 3, 2750 GRAN","Telephone":"4761329113","Latitude":60.356483,"Longitude":10.57168,"CurrentState":"Open","OpeningHours":["9:00-20:00","9:00-20:00","9:00-20:00","9:00-20:00","9:00-20:00","9:00-18:00","0:00-0:00"],"Tag":""},{"Id":3208,"ExternalId":162,"Name":"KUBEN HØNEFOSS","ShortName":"KUBEN HØNEFOSS","Address":"KONG RINGSG. 1, 3510 HØNEFOSS","Telephone":"4732124086","Latitude":60.164844,"Longitude":10.255478,"CurrentState":"Open","OpeningHours":["9:00-20:00","9:00-20:00","9:00-20:00","9:00-20:00","9:00-20:00","9:00-18:00","0:00-0:00"],"Tag":""},{"Id":3209,"ExternalId":163,"Name":"Oslo Lufthavn Gardermoen Ankomst ","ShortName":"OSLO LUFTHAVN GARDER","Address":"Oslo Lufthavn Gardermoen, 2060 Gardermoen","Telephone":"4764821880","Latitude":60.1938,"Longitude":11.0989,"CurrentState":"Open","OpeningHours":["0:00-0:00","0:00-0:00","0:00-0:00","0:00-0:00","0:00-0:00","0:00-0:00","0:00-0:00"],"Tag":""},{"Id":3210,"ExternalId":168,"Name":"METROSENTERET","ShortName":"METROSENTERET","Address":"SOLHEIMVEIEN 85-87, 1473 LØRENSKOG","Telephone":"4767902411","Latitude":59.928167,"Longitude":10.959046,"CurrentState":"Open","OpeningHours":["9:00-21:00","9:00-21:00","9:00-21:00","9:00-21:00","9:00-21:00","9:00-18:00","0:00-0:00"],"Tag":""},{"Id":3211,"ExternalId":169,"Name":"CC MARTN GJØVIK","ShortName":"CC MARTN GJØVIK","Address":"JERNBANESVINGEN 6, 2821 GJØVIK","Telephone":"4761179396","Latitude":60.79878,"Longitude":10.694611,"CurrentState":"Open","OpeningHours":["10:00-21:00","10:00-21:00","10:00-21:00","10:00-21:00","10:00-21:00","10:00-18:00","0:00-0:00"],"Tag":""},{"Id":3212,"ExternalId":171,"Name":"ROMERIKSSENTERET","ShortName":"ROMERIKSSENTERET","Address":"TR.HEIMSV. 86, 2040 KLØFTA","Telephone":"4763981025","Latitude":60.0761246,"Longitude":11.136121,"CurrentState":"Open","OpeningHours":["9:30-20:00","9:30-20:00","9:30-20:00","9:30-20:00","9:30-20:00","9:30-18:00","0:00-0:00"],"Tag":""},{"Id":3213,"ExternalId":173,"Name":"Aker Universitetssykehus","ShortName":"AKER UNIV.SYKEHUS","Address":"Trondheimsveien 235, 685 OSLO","Telephone":"4722152196","Latitude":59.93888,"Longitude":10.7889,"CurrentState":"Open","OpeningHours":["8:30-18:00","8:30-18:00","8:30-18:00","8:30-18:00","8:30-18:00","11:00-18:00","11:00-18:00"],"Tag":""},{"Id":3214,"ExternalId":174,"Name":"Sirkus Shopping","ShortName":"SIRKUS SHOPPING","Address":"Falkenborgvn.9 - vareadr.nr. 5, 7044 TRONDHEIM","Telephone":"4700000000","Latitude":63.436271,"Longitude":10.456035,"CurrentState":"Open","OpeningHours":["9:00-21:00","9:00-21:00","9:00-21:00","9:00-21:00","9:00-21:00","9:00-20:00","0:00-0:00"],"Tag":""},{"Id":3215,"ExternalId":175,"Name":"GJØVIK JB.ST.","ShortName":"GJØVIK JB.ST.","Address":"JERNBANESTASJONEN, 2821 GJØVIK","Telephone":"4761172622","Latitude":60.7963164847421,"Longitude":10.694731939584,"CurrentState":"Open","OpeningHours":["5:30-20:30","5:30-20:30","5:30-20:30","5:30-20:30","5:30-20:30","8:00-20:30","10:00-20:30"],"Tag":""},{"Id":3568,"ExternalId":176,"Name":"Narvesen Vestby Arena","ShortName":"Vestby Arena","Address":"Vestby Arena, Senterveien 8","Telephone":"4794810755","Latitude":59.60398,"Longitude":10.74317,"CurrentState":"Open","OpeningHours":["9:00-18:00","9:00-18:00","9:00-18:00","9:00-18:00","9:00-18:00","9:00-18:00","9:00-18:00"],"Tag":""},{"Id":3216,"ExternalId":177,"Name":"KONGSVINGER JB.ST.","ShortName":"KONGSVINGER JB.ST.","Address":"JERNBANESTASJONEN, 2211 KONGSVINGER","Telephone":"4762816549","Latitude":60.187254,"Longitude":12.003223,"CurrentState":"Open","OpeningHours":["6:00-21:00","6:00-21:00","6:00-21:00","6:00-21:00","6:00-21:00","9:00-18:00","11:00-21:00"],"Tag":""},{"Id":3217,"ExternalId":178,"Name":"ØSTFOLDHALLEN","ShortName":"ØSTFOLDHALLEN","Address":"DIKEVN. 28, PB 105, 1662 ROLVSØY","Telephone":"4769337488","Latitude":59.251082,"Longitude":10.994061,"CurrentState":"Open","OpeningHours":["9:00-20:00","9:00-20:00","9:00-20:00","9:00-20:00","9:00-20:00","9:00-18:00","0:00-0:00"],"Tag":""},{"Id":3567,"ExternalId":179,"Name":"Narvesen Bergen Bussterminal","ShortName":"Bergen Bussterminal","Address":"Bergen Bussterminal, Strømgaten 8, Bergen","Telephone":"4790369430","Latitude":60.389932,"Longitude":5.331931,"CurrentState":"Open","OpeningHours":["5:30-23:00","5:30-23:00","5:30-23:00","5:30-23:00","5:30-23:00","7:00-22:00","9:00-23:00"],"Tag":""},{"Id":3218,"ExternalId":180,"Name":"STRØMMEN S.TORGE","ShortName":"STRØMMEN S.TORGE","Address":"STASJONSVN. 3, 2010 STRØMMEN","Telephone":"4763803030","Latitude":59.944729,"Longitude":11.00733,"CurrentState":"Open","OpeningHours":["9:30-21:00","9:30-21:00","9:30-21:00","9:30-21:00","9:30-21:00","9:30-19:00","0:00-0:00"],"Tag":""},{"Id":3219,"ExternalId":181,"Name":"FYLKESSYKEHUSET","ShortName":"FYLKESSYKEHUSET","Address":"6508 KRISTIANSUND","Telephone":"4771677153","Latitude":63.108906,"Longitude":7.726974,"CurrentState":"Open","OpeningHours":["7:30-19:00","7:30-19:00","7:30-19:00","7:30-19:00","7:30-19:00","10:00-17:00","11:00-17:00"],"Tag":""},{"Id":3220,"ExternalId":182,"Name":"KLØFTA JB.ST.","ShortName":"KLØFTA JB.ST.","Address":"JERNBANESTASJONEN, 2040 KLØFTA","Telephone":"4763986483","Latitude":60.077067,"Longitude":11.137533,"CurrentState":"Open","OpeningHours":["6:30-19:30","6:30-19:30","6:30-19:30","6:30-19:30","6:30-19:30","9:00-19:00","11:00-19:00"],"Tag":""},{"Id":3221,"ExternalId":183,"Name":"KONGENSPLASS","ShortName":"KONGENSPLASS","Address":"KONGENS PLASS, 6509 KRISTIANSUND","Telephone":"4771673233","Latitude":63.110634,"Longitude":7.729237,"CurrentState":"Open","OpeningHours":["7:30-21:30","7:30-21:30","7:30-21:30","7:30-21:30","7:30-22:30","9:00-21:30","10:00-21:30"],"Tag":""},{"Id":3222,"ExternalId":184,"Name":"STRØMMEN STORSENTER","ShortName":"STRØMMEN STORSENTER","Address":"STØPERIVN. 5, 2010 STRØMMEN","Telephone":"4763816233","Latitude":59.948235,"Longitude":11.009215,"CurrentState":"Open","OpeningHours":["9:00-21:00","9:00-21:00","9:00-21:00","9:00-21:00","9:00-21:00","9:00-19:00","0:00-0:00"],"Tag":""},{"Id":3223,"ExternalId":185,"Name":"Bodø Lufthavn, ankomst","ShortName":"BODØ LUFTHAVN, ANKOM","Address":"Olav V gate 56-60, 8004 BODØ","Telephone":"4791851068","Latitude":67.27256,"Longitude":14.3673,"CurrentState":"Open","OpeningHours":["6:00-21:00","6:00-21:00","6:00-21:00","6:00-21:00","6:00-21:00","9:00-16:00","10:00-21:00"],"Tag":""},{"Id":3224,"ExternalId":186,"Name":"VALDRES STORSENTER","ShortName":"VALDRES STORSENTER","Address":"ValdresMARKAVN. 2, 2920 LEIRA I VALDRES","Telephone":"4761362538","Latitude":60.9710038775463,"Longitude":9.28980443626642,"CurrentState":"Open","OpeningHours":["10:00-20:00","10:00-20:00","10:00-20:00","10:00-20:00","10:00-20:00","10:00-18:00","0:00-0:00"],"Tag":""},{"Id":3225,"ExternalId":187,"Name":"STORKAIA BRYGGE","ShortName":"STORKAIA BRYGGE","Address":"Kaibakken 3, 6509 KRISTIANSUND","Telephone":"4771670557","Latitude":63.111273,"Longitude":7.73252,"CurrentState":"Open","OpeningHours":["9:00-21:00","9:00-21:00","9:00-21:00","9:00-21:00","9:00-21:00","9:00-18:00","11:00-18:00"],"Tag":""},{"Id":3226,"ExternalId":189,"Name":"LILLEHAMMER JB.ST.","ShortName":"LILLEHAMMER JB.ST.","Address":"JERNBANESTASJONEN, 2609 LILLEHAMMER","Telephone":"4761252779","Latitude":61.114557,"Longitude":10.462889,"CurrentState":"Open","OpeningHours":["6:00-20:30","6:00-20:30","6:00-20:30","6:00-20:30","6:00-20:30","8:00-18:00","9:00-20:30"],"Tag":""},{"Id":3227,"ExternalId":191,"Name":"LILLESTRØM JB.ST.","ShortName":"LILLESTRØM JB.ST.","Address":"JONAS LIESGT. 4, 2000  LILLESTRØM","Telephone":"4763812309","Latitude":59.95376,"Longitude":11.04454,"CurrentState":"Open","OpeningHours":["6:00-23:00","6:00-23:00","6:00-23:00","6:00-23:00","6:00-23:00","7:00-23:00","9:00-23:00"],"Tag":""},{"Id":3228,"ExternalId":192,"Name":"TORGHJØRNET HAMAR","ShortName":"TORGHJØRNET HAMAR","Address":"TORGGATA 81, 2317 HAMAR","Telephone":"4762523171","Latitude":60.795212,"Longitude":11.0692728,"CurrentState":"Open","OpeningHours":["8:30-18:00","8:30-18:00","8:30-18:00","8:30-18:00","8:30-18:00","9:00-18:00","0:00-0:00"],"Tag":""},{"Id":3572,"ExternalId":194,"Name":"Narvesen Bodø Lufthavn, avgang","ShortName":"Bodø Lufthavn Avgang","Address":"Olav V gate 56-60, 8004 BODØ","Telephone":"12345678","Latitude":67.27258,"Longitude":14.3675,"CurrentState":"Open","OpeningHours":["6:00-21:30","6:00-21:30","6:00-21:30","6:00-21:30","6:00-21:30","9:00-15:30","7:00-21:30"],"Tag":""},{"Id":3229,"ExternalId":195,"Name":"MOSSEPORTEN","ShortName":"MOSSEPORTEN","Address":"PATTERØDVN.2, 1599 MOSS","Telephone":"4769257830","Latitude":59.446777,"Longitude":10.70281,"CurrentState":"Open","OpeningHours":["9:30-20:00","9:30-20:00","9:30-20:00","9:30-20:00","9:30-20:00","9:30-18:00","0:00-0:00"],"Tag":""},{"Id":3570,"ExternalId":196,"Name":"Narvesen Magneten Kjøpesenter","ShortName":"Magneten Kjøpesenter","Address":"Moafjæra 14, 7606 Levanger","Telephone":"470 47 477","Latitude":63.7335480096029,"Longitude":11.2825412303209,"CurrentState":"Open","OpeningHours":["9:30-20:00","9:30-20:00","9:30-20:00","9:30-20:00","9:30-20:00","9:30-18:00",null],"Tag":""},{"Id":3344,"ExternalId":197,"Name":"SØRLANDSSENTERET","ShortName":"SØRLANDSSENTERET","Address":"BARSTØLSVN. 31, 4636 KRISTIANSAND S","Telephone":"4738046870","Latitude":58.172546,"Longitude":8.12717,"CurrentState":"Open","OpeningHours":["10:00-21:00","10:00-21:00","10:00-21:00","10:00-21:00","10:00-21:00","10:00-19:00",null],"Tag":""},{"Id":6671,"ExternalId":200,"Name":"Narvesen Oslo City Underetasjen","ShortName":"Oslo C Underetasjen","Address":"Steners gata 1","Telephone":"4741572691","Latitude":59.912766,"Longitude":10.751707,"CurrentState":"Open","OpeningHours":["8:00-22:00","8:00-22:00","8:00-22:00","8:00-22:00","8:00-22:00","9:00-22:00",null],"Tag":""},{"Id":3231,"ExternalId":201,"Name":"GARDERMOEN JB.ST.","ShortName":"GARDERMOEN JB.ST.","Address":"JERNB.ST., PB 152, 2061 GARDERMOEN","Telephone":"4763983467","Latitude":60.1933,"Longitude":11.0989,"CurrentState":"Open","OpeningHours":["6:00-0:00","6:00-0:00","6:00-0:00","6:00-0:00","6:00-0:00","8:00-21:00","9:00-0:00"],"Tag":""},{"Id":3233,"ExternalId":204,"Name":"MOSS JB ST","ShortName":"MOSS JB ST","Address":"JERNBANEGT. 1, 1531 MOSS","Telephone":"4769252088","Latitude":59.43362,"Longitude":10.655411,"CurrentState":"Open","OpeningHours":["5:45-21:00","5:45-21:00","5:45-21:00","5:45-21:00","5:45-21:00","7:45-21:00","9:45-22:00"],"Tag":""},{"Id":3234,"ExternalId":207,"Name":"TRIADEN","ShortName":"TRIADEN","Address":"Lørenskog SS, Gamleveien 88, 1476 RAS","Telephone":"4767974255","Latitude":59.918393,"Longitude":10.953962,"CurrentState":"Open","OpeningHours":["9:00-21:00","9:00-21:00","9:00-21:00","9:00-21:00","9:00-21:00","9:00-19:00","0:00-0:00"],"Tag":""},{"Id":3235,"ExternalId":208,"Name":"KAIEN","ShortName":"KAIEN","Address":"HAVNEGT. 12, 6413 MOLDE","Telephone":"4771254603","Latitude":62.734782,"Longitude":7.155999,"CurrentState":"Open","OpeningHours":["9:00-22:00","9:00-22:00","9:00-22:00","9:00-22:00","9:00-22:00","9:00-22:00","11:00-22:00"],"Tag":""},{"Id":3236,"ExternalId":211,"Name":"FYLKESSYKEHUSET","ShortName":"FYLKESSYKEHUSET","Address":"PARKVEIEN 84, 6407 MOLDE","Telephone":"4771218606","Latitude":62.737291,"Longitude":7.139987,"CurrentState":"Open","OpeningHours":["7:30-20:30","7:30-20:30","7:30-20:30","7:30-20:30","7:30-20:30","9:00-19:00","10:00-19:00"],"Tag":""},{"Id":3237,"ExternalId":213,"Name":"SYKEHUSET LILLEHAMMER","ShortName":"LILLEHAMMER SYKEHUS","Address":"A. SANDVIGSG 17, 2629 LILLEHAMMER","Telephone":"4761253397","Latitude":61.113304,"Longitude":10.470443,"CurrentState":"Open","OpeningHours":["7:00-20:30","7:00-20:30","7:00-20:30","7:00-20:30","7:00-20:30","10:00-20:30","10:00-20:30"],"Tag":""},{"Id":3238,"ExternalId":214,"Name":"BRUMUNDDAL","ShortName":"BRUMUNDDAL","Address":"FURNESVEGEN 8, 2380 BRUMUNDDAL","Telephone":"4762344577","Latitude":60.88629,"Longitude":10.94358,"CurrentState":"Open","OpeningHours":["9:00-20:00","9:00-20:00","9:00-20:00","9:00-20:00","9:00-20:00","9:00-20:00","11:00-20:00"],"Tag":""},{"Id":3239,"ExternalId":215,"Name":"MYSEN JB ST","ShortName":"MYSEN JB ST","Address":"JERNBANESTASJONEN, 1850  MYSEN","Telephone":"4769892240","Latitude":59.554065,"Longitude":11.324512,"CurrentState":"Open","OpeningHours":["6:00-21:00","6:00-21:00","6:00-21:00","6:00-21:00","6:00-21:00","8:45-18:00","9:30-20:00"],"Tag":""},{"Id":3240,"ExternalId":216,"Name":"SUNDTANGEN","ShortName":"SUNDTANGEN","Address":"VORMAVN. 25, 2080 EIDSVOLL","Telephone":"4763954391","Latitude":60.328294,"Longitude":11.260331,"CurrentState":"Open","OpeningHours":["10:00-20:00","10:00-20:00","10:00-20:00","10:00-20:00","10:00-20:00","9:00-20:00","12:00-20:00"],"Tag":""},{"Id":3241,"ExternalId":217,"Name":"STORBYEN SARPSBORG","ShortName":"STORBYEN SARPSBORG","Address":"R.AMUNDS.GT.36, 1723 SARPSBORG","Telephone":"4769120850","Latitude":59.283784,"Longitude":11.107225,"CurrentState":"Open","OpeningHours":["9:00-20:00","9:00-20:00","9:00-20:00","9:00-20:00","9:00-20:00","9:00-18:00","0:00-0:00"],"Tag":""},{"Id":3242,"ExternalId":218,"Name":"GRUBHEI","ShortName":"GRUBHEI","Address":"COLDEVINSGT. 1, 8610 GRUBHEI","Telephone":"4775132277","Latitude":66.319096,"Longitude":14.184441,"CurrentState":"Open","OpeningHours":["9:00-22:00","9:00-22:00","9:00-22:00","9:00-22:00","9:00-22:00","10:00-22:00","10:00-22:00"],"Tag":""},{"Id":3243,"ExternalId":219,"Name":"MOSS SYKEHUS","ShortName":"MOSS SYKEHUS","Address":"PEER GYNTSV. 2, 1535 MOSS","Telephone":"4769257055","Latitude":59.448214,"Longitude":10.694549,"CurrentState":"Open","OpeningHours":["8:30-18:00","8:30-18:00","8:30-18:00","8:30-18:00","8:30-18:00","0:00-0:00","0:00-0:00"],"Tag":""},{"Id":3244,"ExternalId":222,"Name":"RUTEBILSTASJONEN","ShortName":"RUTEBILSTASJONEN","Address":"HAMNEGT. 35, 6413 MOLDE","Telephone":"4771254215","Latitude":62.736865,"Longitude":7.160428,"CurrentState":"Open","OpeningHours":["6:30-22:00","6:30-22:00","6:30-22:00","6:30-22:00","6:30-22:00","8:00-22:00","10:00-22:00"],"Tag":""},{"Id":3571,"ExternalId":224,"Name":"Narvesen Brotorvet","ShortName":"Brotorvet","Address":"Gangveien 10, 3960 STATHELLE","Telephone":"416 26 391","Latitude":59.04586,"Longitude":9.69387,"CurrentState":"Open","OpeningHours":["8:30-20:00","8:30-20:00","8:30-20:00","8:30-20:00","8:30-20:00","8:30-18:00",null],"Tag":""},{"Id":3573,"ExternalId":227,"Name":"Narvesen Bogstadveien 30","ShortName":"BOGSTADVEIEN 30","Address":"Bogstadveien 30, 0355 Oslo","Telephone":"94804387","Latitude":59.9262,"Longitude":10.72096,"CurrentState":"Open","OpeningHours":["7:00-22:00","7:00-22:00","7:00-22:00","7:00-22:00","7:00-23:00","9:00-23:00","10:00-22:00"],"Tag":""},{"Id":3245,"ExternalId":228,"Name":"LØVENVOLDGT.","ShortName":"LØVENVOLDGT.","Address":"LØVENVOLDG. 6, 6002 ÅLESUND","Telephone":"4770122777","Latitude":62.472879,"Longitude":6.158497,"CurrentState":"Open","OpeningHours":["8:00-21:00","8:00-21:00","8:00-21:00","8:00-21:00","8:00-21:00","9:00-21:00","16:00-21:00"],"Tag":""},{"Id":3246,"ExternalId":229,"Name":"ROSEBY SENTER","ShortName":"ROSEBY SENTER","Address":"LINGEDALSVN. 6, 6415 MOLDE","Telephone":"4771257781","Latitude":62.739462,"Longitude":7.179173,"CurrentState":"Open","OpeningHours":["9:30-20:00","9:30-20:00","9:30-20:00","9:30-20:00","9:30-20:00","9:30-18:00","12:00-18:00"],"Tag":""},{"Id":6906,"ExternalId":230,"Name":"Narvesen CC Stadion Hamar","ShortName":"CC Stadion Hamar","Address":"Vangsveien 62 2317 HAMAR","Telephone":"4747905825","Latitude":60.7971645059939,"Longitude":11.0857472196221,"CurrentState":"Open","OpeningHours":["10:00-21:00","10:00-21:00","10:00-21:00","10:00-21:00","10:00-21:00","10:00-18:00",null],"Tag":""},{"Id":6871,"ExternalId":231,"Name":"Narvesen Fornebu","ShortName":"Fornebu","Address":"Snarøyveien 55,1364 FORNEBU","Telephone":"92407117","Latitude":59.8911064,"Longitude":10.6269922,"CurrentState":"Open","OpeningHours":["9:00-20:00","9:00-20:00","9:00-20:00","9:00-20:00","9:00-20:00","9:00-18:00","0:00-0:00"],"Tag":""},{"Id":3247,"ExternalId":232,"Name":"SJØSKOGVN. 7","ShortName":"SJØSKOGVN. 7","Address":"SJØSKOGVN. 7, 1407 VINTERBRO","Telephone":"4764978535","Latitude":59.738771,"Longitude":10.765553,"CurrentState":"Open","OpeningHours":["10:00-21:00","10:00-21:00","10:00-21:00","10:00-21:00","10:00-21:00","9:00-18:00","0:00-0:00"],"Tag":""},{"Id":3248,"ExternalId":233,"Name":"VINTERBRO SENTER","ShortName":"VINTERBRO","Address":"SJØSKOGVN. 7, 1407 VINTERBRO","Telephone":"4748280761","Latitude":59.738771,"Longitude":10.765553,"CurrentState":"Open","OpeningHours":["10:00-21:00","10:00-21:00","10:00-21:00","10:00-21:00","10:00-21:00","9:00-18:00",null],"Tag":""},{"Id":3249,"ExternalId":234,"Name":"KIRKEGATA LILLEHAMMER","ShortName":"KIRKEGT. LILLEHAMMER","Address":"KIRKEGATA 52, 2609 LILLEHAMMER","Telephone":"4761258176","Latitude":61.114323,"Longitude":10.464159,"CurrentState":"Open","OpeningHours":["9:00-21:00","9:00-21:00","9:00-21:00","9:00-21:00","9:00-21:00","9:00-18:00","11:00-21:00"],"Tag":""},{"Id":3250,"ExternalId":235,"Name":"SARPSBORG","ShortName":"SARPSBORG","Address":"LILLETUNVEIEN 2, 1711 SARPSBORG","Telephone":"4769139661","Latitude":59.2881,"Longitude":11.0878,"CurrentState":"Open","OpeningHours":["10:00-20:00","10:00-20:00","10:00-20:00","10:00-20:00","10:00-20:00","9:00-18:00","0:00-0:00"],"Tag":""},{"Id":3251,"ExternalId":236,"Name":"RØROS JB.STASJON","ShortName":"RØROS JB.STASJON","Address":"JERNBANESTASJONEN, 7374 RØROS","Telephone":"4772411302","Latitude":62.574744,"Longitude":11.380837,"CurrentState":"Open","OpeningHours":["7:30-21:00","7:30-21:00","7:30-21:00","7:30-21:00","7:30-21:00","9:00-21:00","10:00-21:00"],"Tag":""},{"Id":3253,"ExternalId":239,"Name":"STORBYEN","ShortName":"STORBYEN","Address":"R.AMUNDS.GT.36, 1723 SARPSBORG","Telephone":"4769121516","Latitude":59.283784,"Longitude":11.107225,"CurrentState":"Open","OpeningHours":["7:00-20:00","7:00-20:00","7:00-20:00","7:00-20:00","7:00-20:00","9:00-18:00","0:00-0:00"],"Tag":""},{"Id":3254,"ExternalId":240,"Name":"BJØRNSONSKVARTALET","ShortName":"BJØRNSONSKVARTALET","Address":"Storgaten 41, 1531 MOSS","Telephone":"4769241698","Latitude":59.437552,"Longitude":10.662797,"CurrentState":"Open","OpeningHours":["8:45-20:00","8:45-20:00","8:45-20:00","8:45-20:00","8:45-20:00","8:45-18:00","0:00-0:00"],"Tag":""},{"Id":3255,"ExternalId":241,"Name":"SKI STORSENTER","ShortName":"SKI STORSENTER","Address":"JERNBANEVN. 6, 1400 SKI","Telephone":"4764889260","Latitude":59.715702,"Longitude":10.836014,"CurrentState":"Open","OpeningHours":["10:00-21:00","10:00-21:00","10:00-21:00","10:00-21:00","10:00-21:00","10:00-18:00","0:00-0:00"],"Tag":""},{"Id":3256,"ExternalId":242,"Name":"KOLBOTN TORG","ShortName":"KOLBOTN TORG","Address":"KOLBOTNVEIEN 25, 1410 KOLBOTN","Telephone":"4766810260","Latitude":59.810178,"Longitude":10.79982,"CurrentState":"Open","OpeningHours":["10:00-21:00","10:00-21:00","10:00-21:00","10:00-21:00","10:00-21:00","9:00-18:00","0:00-0:00"],"Tag":""},{"Id":3257,"ExternalId":243,"Name":"SKI STORSENTER ØST","ShortName":"SKI STORSENTER ØST","Address":"TORGVEIEN 5, 1400 SKI","Telephone":"4764859230","Latitude":59.719008,"Longitude":10.838157,"CurrentState":"Open","OpeningHours":["9:00-21:00","9:00-21:00","9:00-21:00","9:00-21:00","9:00-21:00","9:00-18:00","0:00-0:00"],"Tag":""},{"Id":3258,"ExternalId":244,"Name":"BORG STORSENTER","ShortName":"BORG STORSENTER","Address":"KLOKKERG.V.31, 1711 SARPSBORG","Telephone":"4769163260","Latitude":59.276363,"Longitude":11.088214,"CurrentState":"Open","OpeningHours":["10:00-20:00","10:00-20:00","10:00-20:00","10:00-20:00","10:00-20:00","10:00-18:00","0:00-0:00"],"Tag":""},{"Id":3259,"ExternalId":246,"Name":"SKI JB. ST.","ShortName":"SKI JB. ST.","Address":"JERNBANEVN. 1C, 1400 SKI","Telephone":"4764871702","Latitude":59.719015,"Longitude":10.835546,"CurrentState":"Open","OpeningHours":["5:50-22:00","5:50-22:00","5:50-22:00","5:50-22:00","5:50-22:00","7:20-21:15","9:20-21:15"],"Tag":""},{"Id":7292,"ExternalId":252,"Name":"Narvesen Operakvarteret","ShortName":"Operakvarteret","Address":"Dronning Eufemiasgate 10 0191 Oslo","Telephone":"22 17 01 00","Latitude":59.9082720929792,"Longitude":10.7571047542297,"CurrentState":"Open","OpeningHours":["6:30-19:00","6:30-19:00","6:30-19:00","6:30-19:00","6:30-19:00","9:00-18:00","11:00-18:00"],"Tag":""},{"Id":3261,"ExternalId":255,"Name":"STJØRDAL JBST. ","ShortName":"STJØRDAL JBST. ","Address":"JERNBANESTASJONEN, 7500 STJØRDAL","Telephone":"4774824732","Latitude":63.471544,"Longitude":10.914458,"CurrentState":"Open","OpeningHours":["6:30-23:00","6:30-23:00","6:30-23:00","6:30-23:00","6:30-23:00","8:30-23:00","11:00-23:00"],"Tag":""},{"Id":7282,"ExternalId":256,"Name":"Narvesen Østfold sykehus Kalnes","ShortName":"Østfold sykehus Kalnes","Address":"Kalnesveien 320, 1712 Grålum","Telephone":"4769150500","Latitude":59.2980050526358,"Longitude":11.0606363789066,"CurrentState":"Open","OpeningHours":["7:00-20:30","7:00-20:30","7:00-20:30","7:00-20:30","7:00-20:30","8:00-17:00","8:00-18:30"],"Tag":""},{"Id":7289,"ExternalId":258,"Name":"Narvesen Prinsenkrysset Trondheim","ShortName":"Prinsenkrysset","Address":"Kongensgate 19 7011 Trondheim","Telephone":"73 53 40 00","Latitude":63.4303499397279,"Longitude":10.3918719287321,"CurrentState":"Open","OpeningHours":["7:00-22:00","7:00-22:00","7:00-22:00","7:00-22:00","7:00-23:00","8:30-23:00","10:00-22:00"],"Tag":""},{"Id":3262,"ExternalId":263,"Name":"TRONDHEIM SENTRALSTASJON  ","ShortName":"TRONDHEIM SENTRALST.","Address":"Fosenkaia 1, 7010 TRONDHEIM","Telephone":"4773536810","Latitude":63.435739,"Longitude":10.398259,"CurrentState":"Open","OpeningHours":["6:45-23:15","6:45-23:15","6:45-23:15","6:45-23:15","6:45-23:15","6:45-23:15","6:45-23:15"],"Tag":""},{"Id":3263,"ExternalId":266,"Name":"PP SENTERET BUSSE","ShortName":"PP SENTERET BUSSE","Address":"Vestregt. 21, 3919 PORSGRUNN","Telephone":"4735551729","Latitude":59.141129,"Longitude":9.641603,"CurrentState":"Open","OpeningHours":["9:00-21:00","9:00-21:00","9:00-21:00","9:00-21:00","9:00-21:00","9:00-19:00","10:00-20:00"],"Tag":""},{"Id":3264,"ExternalId":269,"Name":"GLASSHUSET","ShortName":"GLASSHUSET","Address":"STORGATA 5, 8006  BODØ","Telephone":"4775524733","Latitude":67.283455,"Longitude":14.377956,"CurrentState":"Open","OpeningHours":["8:00-22:00","8:00-22:00","8:00-22:00","8:00-22:00","8:00-22:00","9:00-21:00","11:00-22:00"],"Tag":""},{"Id":3265,"ExternalId":273,"Name":"CITY SYD","ShortName":"CITY SYD","Address":"ØSTRE ROSTEN 28-30, 7075 TILLER","Telephone":"4772889770","Latitude":63.361867,"Longitude":10.379882,"CurrentState":"Open","OpeningHours":["9:00-21:00","9:00-21:00","9:00-21:00","9:00-21:00","9:00-21:00","9:00-20:00","0:00-0:00"],"Tag":""},{"Id":3266,"ExternalId":274,"Name":"KNASKEN MOELV","ShortName":"KNASKEN MOELV","Address":"STORGT. 111, 2390 MOELV","Telephone":"4762367793","Latitude":60.9291,"Longitude":10.701,"CurrentState":"Open","OpeningHours":["9:00-21:00","9:00-21:00","9:00-21:00","9:00-21:00","9:00-21:00","9:00-21:00","10:00-21:00"],"Tag":""},{"Id":3270,"ExternalId":282,"Name":"KAIA","ShortName":"KAIA","Address":"RICHARD WITHSGT. 1, 8800 SANDNESSJØEN","Telephone":"4775042144","Latitude":66.02355,"Longitude":12.6373,"CurrentState":"Open","OpeningHours":["8:00-22:00","8:00-22:00","8:00-22:00","8:00-22:00","8:00-22:00","9:00-22:00","10:00-22:00"],"Tag":""},{"Id":3271,"ExternalId":284,"Name":"FOKUS FREDRIKSTAD","ShortName":"FOKUS FREDRIKSTAD","Address":"NYGAARDSGATA 49/51, 1607 FREDRIKSTAD","Telephone":"4769317933","Latitude":59.213043,"Longitude":10.938155,"CurrentState":"Open","OpeningHours":["7:30-17:00","7:30-17:00","7:30-17:00","7:30-18:00","7:30-17:00","9:00-16:00","0:00-0:00"],"Tag":""},{"Id":3274,"ExternalId":287,"Name":"LILLESTRØM RUTEBILST","ShortName":"LILLESTRØM RUTEBILST","Address":"JONAS LIESGT., 2000  LILLESTRØM","Telephone":"4763810046","Latitude":59.954324,"Longitude":11.042318,"CurrentState":"Open","OpeningHours":["6:00-22:00","6:00-22:00","6:00-22:00","6:00-22:00","6:00-22:00","9:00-19:00","11:00-19:00"],"Tag":""},{"Id":3275,"ExternalId":288,"Name":"NAMDAL SYKEHUS","ShortName":"NAMDAL SYKEHUS","Address":", 7800 NAMSOS","Telephone":"4774273890","Latitude":64.47068,"Longitude":11.5053,"CurrentState":"Open","OpeningHours":["8:00-20:00","8:00-20:00","8:00-20:00","8:00-20:00","8:00-20:00","9:00-17:00","13:00-19:00"],"Tag":""},{"Id":3276,"ExternalId":289,"Name":"HALDEN STORSENTER","ShortName":"HALDEN STORSENTER","Address":"OS ALLE, 1777 HALDEN","Telephone":"4774273890","Latitude":59.127608,"Longitude":11.388861,"CurrentState":"Open","OpeningHours":["8:00-20:00","8:00-20:00","8:00-20:00","8:00-20:00","8:00-20:00","9:00-18:00","0:00-0:00"],"Tag":""},{"Id":3277,"ExternalId":290,"Name":"OPPDAL","ShortName":"Aunasenteret Oppdal","Address":"O.SKASLIENSVEI 13, 7340 OPPDAL","Telephone":"4772422202","Latitude":62.59328,"Longitude":9.690771,"CurrentState":"Open","OpeningHours":["9:30-20:00","9:30-20:00","9:30-20:00","9:30-20:00","9:30-21:00","9:30-19:00","11:00-19:00"],"Tag":""},{"Id":3278,"ExternalId":291,"Name":"ROYALSENTERET","ShortName":"ROYALSENTERET","Address":"STORGATEN 2, 8006  BODØ","Telephone":"4775521275","Latitude":67.282337,"Longitude":14.374055,"CurrentState":"Open","OpeningHours":["8:00-22:00","8:00-22:00","8:00-22:00","8:00-22:00","8:00-22:00","10:00-21:00","10:00-21:00"],"Tag":""},{"Id":3279,"ExternalId":294,"Name":"AMFI MOA NORD","ShortName":"AMFI MOA NORD","Address":"MOAVEGEN 1, 6018 ÅLESUND","Telephone":"4770142200","Latitude":62.466484,"Longitude":6.351433,"CurrentState":"Open","OpeningHours":["9:30-20:00","9:30-20:00","9:30-20:00","9:30-20:00","9:30-20:00","9:30-18:00","0:00-0:00"],"Tag":""},{"Id":3280,"ExternalId":295,"Name":"HJORTEN KJØPESENTER","ShortName":"HJORTEN KJØPESENTER","Address":", 7240 HITRA","Telephone":"4772444680","Latitude":63.6019509877367,"Longitude":8.97695157676935,"CurrentState":"Open","OpeningHours":["9:00-23:00","9:00-23:00","9:00-23:00","9:00-23:00","9:00-23:00","9:00-23:00","11:00-23:00"],"Tag":""},{"Id":3281,"ExternalId":299,"Name":"TORVET, MO I RANA","ShortName":"TORVET, MO I RANA","Address":"FR.NANSENSGT. 16, 8622 MO I RANA","Telephone":"4775152804","Latitude":66.31058,"Longitude":14.136183,"CurrentState":"Open","OpeningHours":["7:30-21:00","7:30-21:00","7:30-21:00","7:30-21:00","7:30-21:00","8:30-19:00","12:00-18:00"],"Tag":""},{"Id":3282,"ExternalId":300,"Name":"MERCUR SENTERET","ShortName":"MERCUR SENTERET","Address":"KONGENSGT. 8, 7011 TRONDHEIM","Telephone":"4773528608","Latitude":63.430395,"Longitude":10.3985,"CurrentState":"Open","OpeningHours":["9:30-20:00","9:30-20:00","9:30-20:00","9:30-20:00","9:30-20:00","9:30-18:00","0:00-0:00"],"Tag":""},{"Id":3283,"ExternalId":303,"Name":"FARMANSTREDET","ShortName":"FARMANSTREDET","Address":"JERNBANEGT. 1 D, 3110 TØNSBERG","Telephone":"4733319311","Latitude":59.270091,"Longitude":10.412187,"CurrentState":"Open","OpeningHours":["5:30-22:00","5:30-22:00","5:30-22:00","5:30-22:00","5:30-22:00","8:00-19:00","11:00-20:00"],"Tag":""},{"Id":3284,"ExternalId":306,"Name":"GLOBUS","ShortName":"GLOBUS","Address":"SJØFARTSGT 2,  SB 2527, 7714 STEINKJER","Telephone":"4774165140","Latitude":64.01123,"Longitude":11.49161,"CurrentState":"Open","OpeningHours":["9:30-20:00","9:30-20:00","9:30-20:00","9:30-20:00","9:30-20:00","9:30-18:00","0:00-0:00"],"Tag":""},{"Id":3285,"ExternalId":307,"Name":"ROSENBORG PARK","ShortName":"ROSENBORG PARK","Address":"STADSING.DAHLSGT. 5, 7015 TRONDHEIM","Telephone":"4773510217","Latitude":63.430044,"Longitude":10.418444,"CurrentState":"Open","OpeningHours":["8:00-22:00","8:00-22:00","8:00-22:00","8:00-22:00","9:00-22:00","9:00-23:00","11:00-23:00"],"Tag":""},{"Id":3286,"ExternalId":312,"Name":"LILLETORGET","ShortName":"LILLETORGET","Address":"SØNDREGT. 14, 7011 TRONDHEIM","Telephone":"4773521241","Latitude":63.432491,"Longitude":10.400159,"CurrentState":"Open","OpeningHours":["7:00-23:00","7:00-23:00","7:00-23:00","7:00-23:00","7:00-23:00","9:00-23:00","11:00-23:00"],"Tag":""},{"Id":3287,"ExternalId":315,"Name":"TILLERTORGET","ShortName":"TILLERTORGET","Address":"IVAR LYKKESV. 3, 7075 TILLER","Telephone":"4772885602","Latitude":63.358815,"Longitude":10.374993,"CurrentState":"Open","OpeningHours":["9:00-21:00","9:00-21:00","9:00-21:00","9:00-21:00","9:00-21:00","9:00-19:00","12:00-18:00"],"Tag":""},{"Id":3288,"ExternalId":316,"Name":"GRIMMERGÅRDEN","ShortName":"GRIMMERGÅRDEN","Address":"R.RØNNEB.GT.21, 6002 ÅLESUND","Telephone":"4770121070","Latitude":62.472262,"Longitude":6.158443,"CurrentState":"Open","OpeningHours":["9:00-20:00","9:00-20:00","9:00-20:00","9:00-20:00","9:00-20:00","9:00-19:00","11:00-19:00"],"Tag":""},{"Id":3289,"ExternalId":319,"Name":"LADE","ShortName":"LADE","Address":"ØSTMARKVN. 2, 7040 TRONDHEIM","Telephone":"4773922380","Latitude":63.446888,"Longitude":10.444788,"CurrentState":"Open","OpeningHours":["8:30-22:00","8:30-22:00","8:30-22:00","8:30-22:00","8:30-22:00","8:30-22:00","10:30-22:00"],"Tag":""},{"Id":3290,"ExternalId":321,"Name":"TRONDHEIM TORG","ShortName":"TRONDHEIM TORG","Address":"KONGENSGT. 11, 7418 TRONDHEIM","Telephone":"4773532250","Latitude":63.43059,"Longitude":10.393008,"CurrentState":"Open","OpeningHours":["7:00-20:30","7:00-20:30","7:00-20:30","7:00-20:30","7:00-20:30","8:30-18:30","0:00-0:00"],"Tag":""},{"Id":3291,"ExternalId":324,"Name":"BYÅSEN BUTIKKS.","ShortName":"BYÅSEN BUTIKKS.","Address":"FJELLSETERVN. 1, 7020 TRONDHEIM","Telephone":"4772560981","Latitude":63.4178093964403,"Longitude":10.3503885213286,"CurrentState":"Open","OpeningHours":["8:30-22:00","8:30-22:00","8:30-22:00","8:30-22:00","8:30-22:00","9:30-20:00","10:00-21:00"],"Tag":""},{"Id":3292,"ExternalId":325,"Name":"TRONDHEIM","ShortName":"TRONDHEIM","Address":"O.TRYGVASONS 26, 7011 TRONDHEIM","Telephone":"4773520774","Latitude":63.433291,"Longitude":10.397499,"CurrentState":"Open","OpeningHours":["8:00-20:00","8:00-20:00","8:00-20:00","8:00-20:00","8:00-20:00","9:00-18:00","0:00-0:00"],"Tag":""},{"Id":3294,"ExternalId":327,"Name":"HERKULES","ShortName":"HERKULES","Address":"ULEFOSSVN. 32 B, 3704 SKIEN","Telephone":"4735534333","Latitude":59.195877,"Longitude":9.603562,"CurrentState":"Open","OpeningHours":["9:00-20:00","9:00-20:00","9:00-20:00","9:00-20:00","9:00-20:00","9:00-18:00","0:00-0:00"],"Tag":""},{"Id":3295,"ExternalId":328,"Name":"LEUTHENHAVEN","ShortName":"LEUTHENHAVEN","Address":"ERLING SKAKKESGT. 40, 7013 TRONDHEIM","Telephone":"4773532820","Latitude":63.429192,"Longitude":10.389324,"CurrentState":"Open","OpeningHours":["7:30-21:00","7:30-21:00","7:30-21:00","7:30-21:00","7:30-21:00","10:00-18:00","10:00-11:00"],"Tag":""},{"Id":3296,"ExternalId":329,"Name":"Narvesen MANDAL","ShortName":"MANDAL","Address":"JOHNSTONSGT. 3, 4514 MANDAL","Telephone":"4738262153","Latitude":58.02732,"Longitude":7.452643,"CurrentState":"Open","OpeningHours":["8:00-22:00","8:00-22:00","8:00-22:00","8:00-22:00","8:00-22:00","8:00-22:00","10:00-22:00"],"Tag":""},{"Id":3297,"ExternalId":332,"Name":"INNH.SYKEHUS VESTB.","ShortName":"INNH.SYKEHUS VESTB.","Address":"  , 7600 LEVANGER","Telephone":"4774082074","Latitude":63.742302,"Longitude":11.289483,"CurrentState":"Open","OpeningHours":["7:30-20:00","7:30-20:00","7:30-20:00","7:30-20:00","7:30-20:00","8:30-19:00","12:00-19:00"],"Tag":""},{"Id":3298,"ExternalId":333,"Name":"NARDO-CENTERET","ShortName":"NARDO-CENTERET","Address":"HANS BAUCHVEI 1, 7033 TRONDHEIM","Telephone":"4773944380","Latitude":63.403012,"Longitude":10.4276363,"CurrentState":"Open","OpeningHours":["8:00-22:00","8:00-22:00","8:00-22:00","8:00-22:00","8:00-22:00","9:00-22:00","11:00-22:00"],"Tag":""},{"Id":3299,"ExternalId":334,"Name":"STORTORGET KJØPESENTER","ShortName":"STORTORGET KJØPESENT","Address":"Karschesgate 3, 3611 KONGSBERG","Telephone":"4732720668","Latitude":59.668565,"Longitude":9.651871,"CurrentState":"Open","OpeningHours":["10:00-20:00","10:00-20:00","10:00-20:00","10:00-20:00","10:00-20:00","9:00-18:00","0:00-0:00"],"Tag":""},{"Id":3300,"ExternalId":347,"Name":"Nordre","ShortName":"Nordre","Address":"DRONNINGENSG.7, 7011 TRONDHEIM","Telephone":"4773510010","Latitude":63.431929,"Longitude":10.398003,"CurrentState":"Open","OpeningHours":["7:30-21:00","7:30-21:00","7:30-21:00","7:30-21:00","7:30-21:00","8:30-19:00","11:00-19:00"],"Tag":""},{"Id":3301,"ExternalId":350,"Name":"NAMSOS STORSENTER","ShortName":"NAMSOS STORSENTER","Address":"NAMSOS STORSENTER, 7800 NAMSOS","Telephone":"4774276865","Latitude":64.468012,"Longitude":11.491752,"CurrentState":"Open","OpeningHours":["9:00-23:00","9:00-23:00","9:00-23:00","9:00-23:00","9:00-23:00","9:00-23:00","11:00-23:00"],"Tag":""},{"Id":3302,"ExternalId":351,"Name":"BRAGERNES TORG","ShortName":"BRAGERNES TORG","Address":"BRAGERNES TORG 12A, 3017 DRAMMEN","Telephone":"4732834262","Latitude":59.744138,"Longitude":10.204235,"CurrentState":"Open","OpeningHours":["7:00-22:00","7:00-22:00","7:00-22:00","7:00-22:00","7:00-4:00","8:30-4:00","12:00-21:00"],"Tag":""},{"Id":3303,"ExternalId":352,"Name":"STJØRDAL","ShortName":"STJØRDAL","Address":"TORGKVARTALET, 7500 STJØRDAL","Telephone":"4774821850","Latitude":63.469091,"Longitude":10.923563,"CurrentState":"Open","OpeningHours":["9:00-20:00","9:00-20:00","9:00-20:00","9:00-20:00","9:00-20:00","9:00-20:00","0:00-0:00"],"Tag":""},{"Id":3304,"ExternalId":353,"Name":"DRAMMEN JB.ST","ShortName":"DRAMMEN JB.ST","Address":"STRØMSØ TORG 1, 3044 DRAMMEN","Telephone":"4732831316","Latitude":59.74023,"Longitude":10.20446,"CurrentState":"Open","OpeningHours":["5:30-23:30","5:30-23:30","5:30-23:30","5:30-23:30","5:30-23:30","7:00-21:00","9:00-23:30"],"Tag":""},{"Id":3305,"ExternalId":354,"Name":"AMFISENTERET","ShortName":"AMFISENTERET","Address":"AMFISENTERET, 6650 SURNADAL","Telephone":"4771657475","Latitude":62.9739665,"Longitude":8.7247194,"CurrentState":"Open","OpeningHours":["10:00-21:00","10:00-21:00","10:00-21:00","10:00-21:00","10:00-21:00","10:00-20:00","11:00-21:00"],"Tag":""},{"Id":3306,"ExternalId":355,"Name":"HARALDSGATEN","ShortName":"HARALDSGATEN","Address":"HARALDSGT. 125, 5527 HAUGESUND","Telephone":"4752721184","Latitude":59.412284,"Longitude":5.270183,"CurrentState":"Open","OpeningHours":["7:30-20:00","7:30-20:00","7:30-20:00","7:30-20:00","7:30-20:00","9:00-18:00","11:00-18:00"],"Tag":""},{"Id":3307,"ExternalId":356,"Name":"VALENTINLYSTS.","ShortName":"VALENTINLYSTS.","Address":"ANDERS ESTENSTADSVEI 6E, 7046 TRONDHEIM","Telephone":"4773913430","Latitude":63.423511,"Longitude":10.440953,"CurrentState":"Open","OpeningHours":["9:00-21:00","9:00-21:00","9:00-21:00","9:00-21:00","9:00-21:00","9:00-20:00","10:00-21:00"],"Tag":""},{"Id":3308,"ExternalId":359,"Name":"CC-VAREHUS","ShortName":"CC-VAREHUS","Address":"PB. 518  /  TOMTEGATA 36, 3012 DRAMMEN","Telephone":"4732837339","Latitude":59.741698,"Longitude":10.222829,"CurrentState":"Open","OpeningHours":["10:00-20:00","10:00-20:00","10:00-20:00","10:00-20:00","10:00-20:00","9:00-18:00","0:00-0:00"],"Tag":""},{"Id":3309,"ExternalId":361,"Name":"ARKADEN","ShortName":"ARKADEN","Address":"HANDELSTORVET 1, 3724 SKIEN","Telephone":"4735526089","Latitude":59.207032,"Longitude":9.607632,"CurrentState":"Open","OpeningHours":["9:00-20:00","9:00-20:00","9:00-20:00","9:00-20:00","9:00-20:00","9:00-18:00","0:00-0:00"],"Tag":""},{"Id":3310,"ExternalId":369,"Name":"LIETORGET","ShortName":"LIETORGET","Address":"LIEGATEN 10, 3717 SKIEN","Telephone":"4735522526","Latitude":59.21015,"Longitude":9.604696,"CurrentState":"Open","OpeningHours":["9:00-20:00","9:00-20:00","9:00-20:00","9:00-20:00","9:00-20:00","9:00-20:00","0:00-0:00"],"Tag":""},{"Id":3311,"ExternalId":370,"Name":"Narvesen Amfi Orkanger","ShortName":"OTI-SENTERET","Address":", 7300 ORKANGER","Telephone":"4772487340","Latitude":63.2975244592365,"Longitude":9.84460042789578,"CurrentState":"Open","OpeningHours":["8:00-20:30","8:00-20:30","8:00-20:30","8:00-20:30","8:00-20:30","9:00-19:00",null],"Tag":""},{"Id":3312,"ExternalId":374,"Name":"STØTVIKGÅRDEN","ShortName":"STØTVIKGÅRDEN","Address":"TORGET 3, 3256 LARVIK","Telephone":"4733184580","Latitude":59.053428,"Longitude":10.027263,"CurrentState":"Open","OpeningHours":["8:00-18:00","8:00-18:00","8:00-18:00","8:00-18:00","8:00-18:00","9:00-17:00","10:00-17:00"],"Tag":""},{"Id":3313,"ExternalId":376,"Name":"KILDEN","ShortName":"KILDEN","Address":"GARTNERV.16, 4016 STAVANGER","Telephone":"4751829165","Latitude":58.948056,"Longitude":5.740903,"CurrentState":"Open","OpeningHours":["9:30-20:00","9:30-20:00","9:30-20:00","9:30-20:00","9:30-20:00","9:30-18:00","0:00-0:00"],"Tag":""},{"Id":3314,"ExternalId":380,"Name":"STAVANGER JB. STASJON","ShortName":"STAVANGER JB. STASJO","Address":"JERNBANEVN. 3, 4005 STAVANGER","Telephone":"4751523040","Latitude":58.96725,"Longitude":5.731899,"CurrentState":"Open","OpeningHours":["5:30-23:00","5:30-23:00","5:30-23:00","5:30-23:00","5:30-23:00","7:00-23:00","8:00-23:00"],"Tag":""},{"Id":3315,"ExternalId":381,"Name":"ARNEAGEREN","ShortName":"ARNEAGEREN","Address":"SØREGT.5, 4006 STAVANGER","Telephone":"4751895344","Latitude":58.9708151,"Longitude":5.7330091,"CurrentState":"Open","OpeningHours":["7:00-0:00","7:00-0:00","7:00-0:00","7:00-0:00","7:00-0:00","8:00-0:00","10:00-0:00"],"Tag":""},{"Id":3316,"ExternalId":382,"Name":"NARVIK STORSENTER","ShortName":"NARVESEN STORSENTERET","Address":"KONGENSGT. 66, 8514 NARVIK","Telephone":"4776943962","Latitude":68.441332,"Longitude":17.435125,"CurrentState":"Open","OpeningHours":["9:00-20:00","9:00-20:00","9:00-20:00","9:00-20:00","9:00-20:00","9:00-18:00","0:00-0:00"],"Tag":""},{"Id":3317,"ExternalId":383,"Name":"NARVESEN SOLAKROSSEN","ShortName":"SOLAKROSSEN","Address":"4050 SOLA","Telephone":"4751650175","Latitude":58.885878,"Longitude":5.647666,"CurrentState":"Open","OpeningHours":["8:00-20:00","8:00-20:00","8:00-20:00","8:00-20:00","8:00-20:00","8:30-18:30","10:00-18:00"],"Tag":""},{"Id":3318,"ExternalId":385,"Name":"HOTEL ATLANTIC","ShortName":"HOTEL ATLANTIC","Address":"OLAV V`S GT. 3, 4005 STAVANGER","Telephone":"4751534601","Latitude":58.964424,"Longitude":5.72626,"CurrentState":"Open","OpeningHours":["6:30-22:00","6:30-22:00","6:30-22:00","6:30-22:00","6:30-4:00","8:00-4:00","10:00-22:00"],"Tag":""},{"Id":3319,"ExternalId":386,"Name":"KULTURHUSET","ShortName":"KULTURHUSET","Address":"SØLVBERGGT. 2, 4006 STAVANGER","Telephone":"4751894910","Latitude":58.971234,"Longitude":5.733838,"CurrentState":"Open","OpeningHours":["9:00-21:00","9:00-21:00","9:00-21:00","9:00-21:00","9:00-22:00","9:00-22:00","10:00-21:00"],"Tag":""},{"Id":3320,"ExternalId":387,"Name":"NERSTRANDA","ShortName":"NERSTRANDA","Address":"NERSTRANDA 9, 9008 TROMSØ","Telephone":"4777686913","Latitude":69.646951,"Longitude":18.95487,"CurrentState":"Open","OpeningHours":["9:00-20:00","9:00-20:00","9:00-20:00","9:00-20:00","9:00-20:00","10:00-18:00","0:00-0:00"],"Tag":""},{"Id":3322,"ExternalId":392,"Name":"TISTA SENTER HALDEN","ShortName":"TISTA SENTER HALDEN","Address":"WALKERSGT. 4, 1771 HALDEN","Telephone":"4769197959","Latitude":59.121617,"Longitude":11.382917,"CurrentState":"Open","OpeningHours":["9:00-20:00","9:00-20:00","9:00-20:00","9:00-20:00","9:00-20:00","9:00-18:00","0:00-0:00"],"Tag":""},{"Id":3323,"ExternalId":395,"Name":"HAUGESUND RBST.","ShortName":"HAUGESUND RBST.","Address":"RUTEBILSTASJONEN, 5522 HAUGESUND","Telephone":"4752721009","Latitude":59.415545,"Longitude":5.272605,"CurrentState":"Open","OpeningHours":["7:00-22:00","7:00-22:00","7:00-22:00","7:00-22:00","7:00-22:00","8:00-21:00","10:00-22:00"],"Tag":""},{"Id":3324,"ExternalId":399,"Name":"BRYNE M44","ShortName":"BRYNE M44","Address":"JUPITERVN. 2, 4340 BRYNE","Telephone":"4751486707","Latitude":58.734928,"Longitude":5.639156,"CurrentState":"Open","OpeningHours":["10:00-21:00","10:00-21:00","10:00-21:00","10:00-21:00","10:00-21:00","10:00-18:00","0:00-0:00"],"Tag":""},{"Id":3325,"ExternalId":401,"Name":"HAUGESUND SYKEHUS","ShortName":"HAUGESUND SYKEHUS","Address":", 5528 HAUGESUND","Telephone":"4752714642","Latitude":59.409412,"Longitude":5.280642,"CurrentState":"Open","OpeningHours":["6:30-21:00","6:30-21:00","6:30-21:00","6:30-21:00","6:30-21:00","8:30-20:00","10:00-20:00"],"Tag":""},{"Id":3326,"ExternalId":402,"Name":"FISKEPIREN","ShortName":"Fiskepiren","Address":"VERKSGT.14 A, 4013 STAVANGER","Telephone":"4751561455","Latitude":58.971832,"Longitude":5.739336,"CurrentState":"Open","OpeningHours":["6:45-22:00","6:45-22:00","6:45-22:00","6:45-22:00","6:45-22:00","9:00-22:00","10:00-22:00"],"Tag":""},{"Id":3327,"ExternalId":404,"Name":"ASKER JB.STASJON","ShortName":"ASKER JB.STASJON","Address":"TORVVN. 4, 1383 ASKER","Telephone":"4766782964","Latitude":59.834309,"Longitude":10.434731,"CurrentState":"Open","OpeningHours":["5:30-20:00","5:30-20:00","5:30-20:00","5:30-20:00","5:30-20:00","9:00-19:00","10:00-19:00"],"Tag":""},{"Id":3328,"ExternalId":405,"Name":"LILLE TORVET HORTEN","ShortName":"LILLE TORVET HORTEN","Address":"APOTEKERG., 3187 HORTEN","Telephone":"4733045981","Latitude":59.415804,"Longitude":10.485039,"CurrentState":"Open","OpeningHours":["8:00-20:30","8:00-20:30","8:00-20:30","8:00-20:30","8:00-20:30","8:00-18:30","11:00-17:00"],"Tag":""},{"Id":3329,"ExternalId":406,"Name":"BUSKERUD STORSENTER","ShortName":"BUSKERUD STORSENTER","Address":"SANDSTRANDA 24, 3055 KROKSTADELVA","Telephone":"4732879925","Latitude":59.755293,"Longitude":9.998822,"CurrentState":"Open","OpeningHours":["10:00-21:00","10:00-21:00","10:00-21:00","10:00-21:00","10:00-21:00","9:00-18:00","0:00-0:00"],"Tag":""},{"Id":3330,"ExternalId":408,"Name":"TORVET","ShortName":"TORVET","Address":"ØVRE LANGGT.44, 3110 TØNSBERG","Telephone":"4733312330","Latitude":59.267411,"Longitude":10.409433,"CurrentState":"Open","OpeningHours":["8:30-17:30","8:30-17:30","8:30-17:30","8:30-18:00","8:30-17:30","9:00-18:00","0:00-0:00"],"Tag":""},{"Id":3331,"ExternalId":409,"Name":"BRYNE JB.ST","ShortName":"BRYNE JB.ST","Address":"JERNBANESTASJONEN, 4340 BRYNE","Telephone":"4751482532","Latitude":58.734698,"Longitude":5.649086,"CurrentState":"Open","OpeningHours":["5:30-21:00","5:30-21:00","5:30-21:00","5:30-21:00","5:30-21:00","9:00-21:00","9:00-21:00"],"Tag":""},{"Id":3332,"ExternalId":411,"Name":"EGERSUND","ShortName":"EGERSUND","Address":"EGERSUND SENTRUM, 4370 EGERSUND","Telephone":"4751490197","Latitude":58.451476,"Longitude":6.000831,"CurrentState":"Open","OpeningHours":["8:00-21:00","8:00-21:00","8:00-21:00","8:00-21:00","8:00-21:00","8:30-19:00","10:00-19:00"],"Tag":""},{"Id":3333,"ExternalId":414,"Name":"FLEKKEFJORD","ShortName":"FLEKKEFJORD","Address":"SPOR 2, 4400 FLEKKEFJORD","Telephone":"4738322242","Latitude":58.293884,"Longitude":6.665797,"CurrentState":"Open","OpeningHours":["9:00-21:00","9:00-21:00","9:00-21:00","9:00-21:00","9:00-21:00","8:30-20:00","11:00-20:00"],"Tag":""},{"Id":3334,"ExternalId":416,"Name":"RORTUNET KJØPESENTER","ShortName":"RORTUNET KJØPESENTER","Address":"KIRKEALLEEN 1, Postboks 254, 3471 SLEMMESTAD","Telephone":"4731281177","Latitude":59.77787,"Longitude":10.487896,"CurrentState":"Open","OpeningHours":["10:00-20:00","10:00-20:00","10:00-20:00","10:00-20:00","10:00-20:00","10:00-18:00","0:00-0:00"],"Tag":""},{"Id":3335,"ExternalId":417,"Name":"JERNB.TORGET","ShortName":"OSLO S SPOR 3-4","Address":"JERNB.TORGET 1, 0154 OSLO","Telephone":"4722176467","Latitude":59.910665,"Longitude":10.750045,"CurrentState":"Open","OpeningHours":["5:45-23:00","5:45-23:00","5:45-23:00","5:45-23:00","5:45-23:00","6:00-23:00","6:00-23:00"],"Tag":""},{"Id":3336,"ExternalId":418,"Name":"TREKANTEN","ShortName":"TREKANTEN","Address":"STRØKET 31, 1383 ASKER","Telephone":"4766988453","Latitude":59.8332252797931,"Longitude":10.4375538602471,"CurrentState":"Open","OpeningHours":["10:00-21:00","10:00-21:00","10:00-21:00","10:00-21:00","10:00-21:00","9:00-18:00","0:00-0:00"],"Tag":""},{"Id":3337,"ExternalId":419,"Name":"MOSJØEN","ShortName":"MOSJØEN","Address":"VOLLANVN. 41, 8663 MOSJØEN","Telephone":"4775176033","Latitude":65.845095,"Longitude":13.200405,"CurrentState":"Open","OpeningHours":["8:00-23:00","8:00-23:00","8:00-23:00","8:00-23:00","8:00-23:00","9:00-23:00","11:00-23:00"],"Tag":""},{"Id":3338,"ExternalId":420,"Name":"KREMMERGÅRDEN","ShortName":"KREMMERGÅRDEN","Address":"R.RØNNEBERGSG.6, 6002 ÅLESUND","Telephone":"4770121430","Latitude":62.471008,"Longitude":6.153001,"CurrentState":"Open","OpeningHours":["9:30-20:00","9:30-20:00","9:30-20:00","9:30-20:00","9:30-20:00","9:30-18:00","0:00-0:00"],"Tag":""},{"Id":3339,"ExternalId":421,"Name":"MARKENSGT.","ShortName":"MARKENSGT.","Address":"MARKENSGT. 35, 4612 KRISTIANSAND","Telephone":"4738023910","Latitude":58.146606,"Longitude":7.991023,"CurrentState":"Open","OpeningHours":["6:30-22:00","6:30-22:00","6:30-22:00","6:30-22:00","6:30-22:00","8:00-22:00","10:00-22:00"],"Tag":""},{"Id":3340,"ExternalId":424,"Name":"AMFI ØST MOAGÅRD","ShortName":"AMFI ØST MOAGÅRD","Address":"AMFI ØST MOAGÅRD, 6010 ÅLESUND","Telephone":"4770149948","Latitude":62.4549879,"Longitude":6.368748,"CurrentState":"Open","OpeningHours":["9:30-20:00","9:30-20:00","9:30-20:00","9:30-20:00","9:30-20:00","9:30-18:00","0:00-0:00"],"Tag":""},{"Id":3341,"ExternalId":426,"Name":"VENNESLA","ShortName":"VENNESLA","Address":"VENNESLAMOEN, 4700 VENNESLA","Telephone":"4738156555","Latitude":58.27029,"Longitude":7.9735,"CurrentState":"Open","OpeningHours":["9:00-21:00","9:00-21:00","9:00-21:00","9:00-21:00","9:00-21:00","9:00-21:00","11:00-21:00"],"Tag":""},{"Id":3342,"ExternalId":431,"Name":"ADMISSENTERET","ShortName":"ADMISSENTERET","Address":"RÅDHUSGATEN 7, 4100 JØRPELAND","Telephone":"4751748845","Latitude":59.0226814,"Longitude":6.0404998,"CurrentState":"Open","OpeningHours":["8:30-21:00","8:30-21:00","8:30-21:00","8:30-21:00","8:30-21:00","8:30-21:00","11:00-21:00"],"Tag":""},{"Id":3343,"ExternalId":432,"Name":"MAXI STORMARKED","ShortName":"MAXI STORMARKED","Address":"GRAVARSVN.7, PB 662, 4305 SANDNES","Telephone":"4751660544","Latitude":58.847992,"Longitude":5.738959,"CurrentState":"Open","OpeningHours":["9:00-20:00","9:00-20:00","9:00-20:00","9:00-20:00","9:00-20:00","9:00-18:00","0:00-0:00"],"Tag":""},{"Id":3345,"ExternalId":438,"Name":"MARKENSGATE","ShortName":"MARKENSGATE","Address":"MARKENSGT. 20 A, 4611 KRISTIANSAND","Telephone":"4738108113","Latitude":58.145477,"Longitude":7.993297,"CurrentState":"Open","OpeningHours":["8:00-20:00","8:00-20:00","8:00-20:00","8:00-20:00","8:00-20:00","8:30-19:00","10:30-19:00"],"Tag":""},{"Id":3346,"ExternalId":441,"Name":"HOLMENSENTERET","ShortName":"HOLMENSENTERET","Address":"VOGELLUND 6, 1394 NESBRU","Telephone":"4766859103","Latitude":59.855009,"Longitude":10.487933,"CurrentState":"Open","OpeningHours":["10:00-20:00","10:00-20:00","10:00-20:00","10:00-20:00","10:00-20:00","9:30-18:00","0:00-0:00"],"Tag":""},{"Id":3347,"ExternalId":442,"Name":"SJØSIDEN KJØPES.","ShortName":"SJØSIDEN KJØPES.","Address":"TEATERGT. 6, 3187 HORTEN","Telephone":"4733041248","Latitude":59.414945,"Longitude":10.486,"CurrentState":"Open","OpeningHours":["10:00-20:00","10:00-20:00","10:00-20:00","10:00-20:00","10:00-20:00","10:00-18:00","0:00-0:00"],"Tag":""},{"Id":3350,"ExternalId":446,"Name":"KRISTIANSAND RUTEBIL","ShortName":"KRISTIANSAND RUTEBIL","Address":"RUTEBILSTASJONEN, 4611 KRISTIANSAND S","Telephone":"4738023764","Latitude":58.143637,"Longitude":7.992073,"CurrentState":"Open","OpeningHours":["6:00-21:00","6:00-21:00","6:00-21:00","6:00-21:00","6:00-21:00","7:00-19:00","10:00-21:00"],"Tag":""},{"Id":3351,"ExternalId":448,"Name":"BYPORTEN","ShortName":"BYPORTEN","Address":"JERNB.TORGET 6, 0154 OSLO","Telephone":"4722174178","Latitude":59.910645,"Longitude":10.750092,"CurrentState":"Open","OpeningHours":["6:15-23:30","6:15-23:30","6:15-23:30","6:15-23:30","6:15-0:00","8:00-0:00","8:00-23:00"],"Tag":""},{"Id":3352,"ExternalId":450,"Name":"FARMANSTREDET","ShortName":"FARMANSTREDET","Address":"TORVHALLEN, 3110 TØNSBERG","Telephone":"4733316755","Latitude":59.2690825637074,"Longitude":10.4104177840054,"CurrentState":"Open","OpeningHours":["9:00-20:00","9:00-20:00","9:00-20:00","9:00-20:00","9:00-20:00","9:00-18:00","0:00-0:00"],"Tag":""},{"Id":3353,"ExternalId":451,"Name":"KRAGERØ","ShortName":"KRAGERØ","Address":"STORG. 2, 3770 KRAGERØ","Telephone":"4735982315","Latitude":58.869231,"Longitude":9.411377,"CurrentState":"Open","OpeningHours":["8:00-20:00","8:00-20:00","8:00-20:00","8:00-20:00","8:00-20:00","8:00-19:00","10:00-20:00"],"Tag":""},{"Id":3354,"ExternalId":452,"Name":"LODEGÅRDEN","ShortName":"LODEGÅRDEN","Address":"Jadarveien 3 C, 4365 NÆRBØ","Telephone":"4751433800","Latitude":58.663475,"Longitude":5.635837,"CurrentState":"Open","OpeningHours":["6:30-22:00","6:30-22:00","6:30-22:00","6:30-22:00","6:30-22:00","8:00-22:00","10:00-22:00"],"Tag":""},{"Id":3355,"ExternalId":453,"Name":"PORSGRUNN","ShortName":"PORSGRUNN","Address":"JERNBANESTASJONEN, 3915 PORSGRUNN","Telephone":"4735550748","Latitude":59.13914,"Longitude":9.658376,"CurrentState":"Open","OpeningHours":["5:30-20:00","5:30-20:00","5:30-20:00","5:30-20:00","5:30-20:00","8:00-18:00","9:00-21:00"],"Tag":""},{"Id":3356,"ExternalId":454,"Name":"LYNGDAL","ShortName":"LYNGDAL","Address":"Alleen 5, 4580  LYNGDAL","Telephone":"4747681525","Latitude":58.137633,"Longitude":7.069433,"CurrentState":"Open","OpeningHours":["9:30-21:00","9:30-21:00","9:30-21:00","9:30-21:00","9:30-21:00","9:30-21:00","11:00-21:00"],"Tag":""},{"Id":3357,"ExternalId":456,"Name":"LILLESAND","ShortName":"LILLESAND","Address":"STRANDG. 2, 4790 LILLESAND","Telephone":"4737270709","Latitude":58.248494,"Longitude":8.377379,"CurrentState":"Open","OpeningHours":["8:00-22:00","8:00-22:00","8:00-22:00","8:00-22:00","8:00-22:00","8:00-22:00","9:00-22:00"],"Tag":""},{"Id":3358,"ExternalId":457,"Name":"ODDENSENTERET","ShortName":"ODDENSENTERET","Address":"VESTERLED 5, 4898 GRIMSTAD","Telephone":"4737042430","Latitude":58.3368514,"Longitude":8.5915955,"CurrentState":"Open","OpeningHours":["9:00-21:00","9:00-21:00","9:00-21:00","9:00-21:00","9:00-21:00","9:00-20:00","11:00-20:00"],"Tag":""},{"Id":3359,"ExternalId":458,"Name":"SANDVIKA STORSENTER","ShortName":"SANDVIKA STORSENTER","Address":"SANDVIKA STORS.2ETG, 1338 SANDVIKA","Telephone":"4767541944","Latitude":59.889626,"Longitude":10.522128,"CurrentState":"Open","OpeningHours":["10:00-21:00","10:00-21:00","10:00-21:00","10:00-21:00","10:00-21:00","10:00-19:00","0:00-0:00"],"Tag":""},{"Id":3360,"ExternalId":460,"Name":"SANDE","ShortName":"SANDE","Address":"REVÅVEIEN 4, 3070 SANDE","Telephone":"4733776288","Latitude":59.587902,"Longitude":10.207762,"CurrentState":"Open","OpeningHours":["8:00-20:00","8:00-20:00","8:00-20:00","8:00-20:00","8:00-20:00","8:00-19:00","11:00-20:00"],"Tag":""},{"Id":3361,"ExternalId":461,"Name":"SANDEFJORD JERNBANES","ShortName":"SANDEFJORD JB.ST.","Address":"JERNBANESTASJONEN, 3210 SANDEFJORD","Telephone":"4733464399","Latitude":59.135062,"Longitude":10.222566,"CurrentState":"Open","OpeningHours":["5:30-21:00","5:30-21:00","5:30-21:00","5:30-21:00","5:30-21:00","8:00-20:00","8:00-21:00"],"Tag":""},{"Id":3362,"ExternalId":464,"Name":"SANDVIKA JB.STASJON","ShortName":"SANDVIKA JB.STASJON","Address":"JERNBANESTASJONEN, 1337 SANDVIKA","Telephone":"4767543121","Latitude":59.893341,"Longitude":10.523556,"CurrentState":"Open","OpeningHours":["5:30-22:00","5:30-22:00","5:30-22:00","5:30-22:00","5:30-22:00","7:30-22:00","9:00-22:00"],"Tag":""},{"Id":3363,"ExternalId":465,"Name":"MARKENSGT.","ShortName":"MARKENSGT.","Address":"MARKENSGT. 10, 4611 KRISTIANSAND S","Telephone":"4738028308","Latitude":58.144629,"Longitude":7.994987,"CurrentState":"Open","OpeningHours":["8:30-20:00","8:30-20:00","8:30-20:00","8:30-20:00","8:30-20:00","9:30-18:00","0:00-0:00"],"Tag":""},{"Id":3364,"ExternalId":466,"Name":"TØNSBERG","ShortName":"NARVESEN TEIE","Address":"SMIDSRØDVEIEN 9, 3120 TØNSBERG","Telephone":"4733322117","Latitude":59.251999,"Longitude":10.418078,"CurrentState":"Open","OpeningHours":["9:00-21:00","9:00-21:00","9:00-21:00","9:00-21:00","9:00-21:00","9:00-21:00","9:00-21:00"],"Tag":""},{"Id":3365,"ExternalId":467,"Name":"FOCUS SENTER FAUSKE","ShortName":"FOCUS SENTER FAUSKE","Address":"STORGT. 68, 8205 FAUSKE","Telephone":"4775641341","Latitude":67.259054,"Longitude":15.395023,"CurrentState":"Open","OpeningHours":["9:00-21:00","9:00-21:00","9:00-21:00","9:00-21:00","9:00-21:00","9:00-21:00","11:00-21:00"],"Tag":""},{"Id":3366,"ExternalId":471,"Name":"JÆRHAGEN","ShortName":"JÆRHAGEN","Address":"SOLAVN. 25, PB 207, 4352 KLEPPE","Telephone":"4751424623","Latitude":58.778533,"Longitude":5.625776,"CurrentState":"Open","OpeningHours":["10:00-20:00","10:00-20:00","10:00-20:00","10:00-20:00","10:00-20:00","10:00-18:00","0:00-0:00"],"Tag":""},{"Id":3367,"ExternalId":472,"Name":"ALNA","ShortName":"ALNA","Address":"STRØMSVN. 245, 0668 OSLO","Telephone":"4722321039","Latitude":59.927991,"Longitude":10.847127,"CurrentState":"Open","OpeningHours":["8:00-21:00","8:00-21:00","8:00-21:00","8:00-21:00","8:00-21:00","9:00-18:00","0:00-0:00"],"Tag":""},{"Id":3368,"ExternalId":474,"Name":"TØNSBERG JERNBANE ST","ShortName":"TØNSBERG JERNBANE ST","Address":"JERNBANEGT. 2, 3110 TØNSBERG","Telephone":"4797427064","Latitude":59.271485,"Longitude":10.409186,"CurrentState":"Open","OpeningHours":["5:45-22:15","5:45-22:15","5:45-22:15","5:45-22:15","5:45-22:15","7:45-21:15","8:45-22:15"],"Tag":""},{"Id":3369,"ExternalId":477,"Name":"LINDERUD SENTER","ShortName":"LINDERUD SENTER","Address":"E.MOGENSØNSV.38, 0594 OSLO","Telephone":"4722881004","Latitude":59.943134,"Longitude":10.836364,"CurrentState":"Open","OpeningHours":["9:30-21:00","9:30-21:00","9:30-21:00","9:30-21:00","9:30-21:00","9:30-19:00","0:00-0:00"],"Tag":""},{"Id":3370,"ExternalId":478,"Name":"LARVIK JBST.","ShortName":"LARVIK JBST.","Address":"STORGT. 15, 3256 LARVIK","Telephone":"4733190841","Latitude":59.050703,"Longitude":10.029851,"CurrentState":"Open","OpeningHours":["6:00-18:30","6:00-18:30","6:00-18:30","6:00-18:30","6:00-18:30","9:00-16:00","11:00-19:30"],"Tag":""},{"Id":3371,"ExternalId":480,"Name":"RUTEBILSTASJONEN","ShortName":"RUTEBILSTASJONEN","Address":"RUTEBILSTASJONEN, 4306 SANDNES","Telephone":"4751664713","Latitude":58.85118,"Longitude":5.73673,"CurrentState":"Open","OpeningHours":["5:30-23:00","5:30-23:00","5:30-23:00","5:30-23:00","5:30-23:00","8:00-23:00","10:00-23:00"],"Tag":""},{"Id":3372,"ExternalId":481,"Name":"SYKEHUSET I VESTFOLD","ShortName":"SYKEHUSET I VESTFOLD","Address":"H. WILHELMSENS ALLÈ 17, 3116 TØNSBERG","Telephone":"4733314290","Latitude":59.273022,"Longitude":10.4182,"CurrentState":"Open","OpeningHours":["7:00-20:30","7:00-20:30","7:00-20:30","7:00-20:30","7:00-20:30","10:00-20:00","10:00-20:00"],"Tag":""},{"Id":3373,"ExternalId":482,"Name":"TUVEN SENTER","ShortName":"TUVEN SENTER","Address":"TUVENBØYGEN 2, PB 551 Heddal, 3673 NOTODDEN","Telephone":"4735014911","Latitude":59.566934,"Longitude":9.2235,"CurrentState":"Open","OpeningHours":["9:45-20:15","9:45-20:15","9:45-20:15","9:45-20:15","9:45-20:15","8:45-18:15","0:00-0:00"],"Tag":""},{"Id":3375,"ExternalId":484,"Name":"VANSE RUTEBILSTASJON","ShortName":"VANSE RUTEBILSTASJON","Address":"RUTEBILSTASJONEN, 4560 VANSE","Telephone":"4738393122","Latitude":58.09805,"Longitude":6.69298,"CurrentState":"Open","OpeningHours":["9:00-21:00","9:00-21:00","9:00-21:00","9:00-21:00","9:00-21:00","9:00-21:00","10:00-21:00"],"Tag":""},{"Id":3376,"ExternalId":485,"Name":"VÅGSBYGD SENTER","ShortName":"VÅGSBYGD SENTER","Address":"KIRSTEN FLAGSTADV. 32, 4621 KRISTIANSAND S","Telephone":"4738010858","Latitude":58.124247,"Longitude":7.953504,"CurrentState":"Open","OpeningHours":["9:30-20:00","8:30-20:00","8:30-20:00","8:30-20:00","8:30-20:00","9:00-18:00","11:00-18:00"],"Tag":""},{"Id":3377,"ExternalId":486,"Name":"STRØKET, ASKER","ShortName":"STRØKET, ASKER","Address":"STRØKET 9, 1383 ASKER","Telephone":"4766901757","Latitude":59.835468,"Longitude":10.433851,"CurrentState":"Open","OpeningHours":["9:00-20:00","9:00-20:00","9:00-20:00","9:00-20:00","9:00-20:00","9:00-19:00","12:00-19:00"],"Tag":""},{"Id":3378,"ExternalId":487,"Name":"AMANDA STORSENTER","ShortName":"AMANDA STORSENTER","Address":"RAGLAMYR, 5505 HAUGESUND","Telephone":"4752719864","Latitude":59.396008,"Longitude":5.327067,"CurrentState":"Open","OpeningHours":["9:30-20:00","9:30-20:00","9:30-20:00","9:30-20:00","9:30-20:00","9:30-18:00","0:00-0:00"],"Tag":""},{"Id":3379,"ExternalId":488,"Name":"AUSTAGDER SYKEHUS","ShortName":"AUSTAGDER SYKEHUS","Address":", 4838 ARENDAL","Telephone":"4737025732","Latitude":58.4668254,"Longitude":8.7573739,"CurrentState":"Open","OpeningHours":["7:30-21:00","7:30-21:00","7:30-21:00","7:30-21:00","7:30-21:00","9:00-20:00","9:00-20:00"],"Tag":""},{"Id":3380,"ExternalId":490,"Name":"HVALTORGET KJ.SENTER","ShortName":"HVALTORGET KJ.SENTER","Address":"TORGET 7, 3210 SANDEFJORD","Telephone":"4733458518","Latitude":59.129749,"Longitude":10.226066,"CurrentState":"Open","OpeningHours":["9:30-20:00","9:30-20:00","9:30-20:00","9:30-20:00","9:30-20:00","9:00-18:00","0:00-0:00"],"Tag":""},{"Id":3381,"ExternalId":491,"Name":"Narvesen 491 Storgaten Porsgrunn","ShortName":"Storgaten Porsgrunn","Address":"STORGATEN 139E, 3915 PORSGRUNN","Telephone":"+4735934340","Latitude":59.140107,"Longitude":9.653868,"CurrentState":"Open","OpeningHours":["7:45-23:00","7:45-23:00","7:45-23:00","7:45-23:00","7:45-3:00","7:45-3:00","10:00-23:00"],"Tag":""},{"Id":3382,"ExternalId":494,"Name":"NORDBYEN SENT.LARVIK","ShortName":"NORDBYEN SENT.LARVIK","Address":"YTTERSØVEIEN 2, 3252 LARVIK","Telephone":"4733115233","Latitude":59.0683,"Longitude":10.04654,"CurrentState":"Open","OpeningHours":["10:00-20:00","10:00-20:00","10:00-20:00","10:00-20:00","10:00-20:00","9:00-18:00","0:00-0:00"],"Tag":""},{"Id":3383,"ExternalId":498,"Name":"AMFI ARENA","ShortName":"AMFI ARENA","Address":"VESTERVN. 3, 4836 ARENDAL","Telephone":"4737025671","Latitude":58.45902,"Longitude":8.76249,"CurrentState":"Open","OpeningHours":["7:00-22:00","7:00-22:00","7:00-22:00","7:00-22:00","7:00-22:00","8:00-21:00","10:00-21:00"],"Tag":""},{"Id":3384,"ExternalId":500,"Name":"TØYEN T-BANE ST.","ShortName":"TØYEN T-BANE ST.","Address":"0653 OSLO","Telephone":"4722687466","Latitude":59.9147732204744,"Longitude":10.775423515588,"CurrentState":"Open","OpeningHours":["6:00-21:00","6:00-21:00","6:00-21:00","6:00-21:00","6:00-21:00","9:00-19:00","9:00-19:00"],"Tag":""},{"Id":3385,"ExternalId":503,"Name":"ØKERN T-BANE ST.","ShortName":"ØKERN T-BANE ST.","Address":"Økernveien 145, 0580 OSLO","Telephone":"4722642372","Latitude":59.931359,"Longitude":10.805906,"CurrentState":"Open","OpeningHours":["7:00-19:00","7:00-19:00","7:00-19:00","7:00-19:00","7:00-19:00","10:00-16:00","0:00-0:00"],"Tag":""},{"Id":3386,"ExternalId":504,"Name":"ØKERN SENTER","ShortName":"ØKERN SENTER","Address":"Økernveien 145, 0580 OSLO","Telephone":"4722724052","Latitude":59.929254,"Longitude":10.805972,"CurrentState":"Open","OpeningHours":["10:00-18:00","10:00-18:00","10:00-18:00","10:00-18:00","10:00-18:00","10:00-17:00","0:00-0:00"],"Tag":""},{"Id":3387,"ExternalId":505,"Name":"CARL BERNERS PLASS","ShortName":"CARL BERNERS PLASS","Address":"CHR.MICHELSENSGT. 1, 0568 OSLO","Telephone":"4722355216","Latitude":59.9266186813175,"Longitude":10.7753795184544,"CurrentState":"Open","OpeningHours":["6:30-23:00","6:30-23:00","6:30-23:00","6:30-23:00","6:30-23:00","8:00-23:00","10:00-23:00"],"Tag":""},{"Id":3388,"ExternalId":507,"Name":"VEITVET T-BANE ST.","ShortName":"VEITVET T-BANE ST.","Address":", 0596 OSLO","Telephone":"4722257983","Latitude":59.9444,"Longitude":10.8474544,"CurrentState":"Open","OpeningHours":["6:00-21:30","6:00-21:30","6:00-21:30","6:00-21:30","6:00-21:30","9:00-21:30","10:00-21:30"],"Tag":""},{"Id":3389,"ExternalId":508,"Name":"MEYER","ShortName":"MEYER","Address":"TH.MEYERSGT. 35, 0555 OSLO","Telephone":"4722383429","Latitude":59.925309,"Longitude":10.759079,"CurrentState":"Open","OpeningHours":["8:00-23:00","8:00-23:00","8:00-23:00","8:00-23:00","8:00-2:00","9:00-2:00","10:00-23:00"],"Tag":""},{"Id":3390,"ExternalId":509,"Name":"KALDBAKKEN","ShortName":"KALDBAKKEN","Address":", 0955 OSLO","Telephone":"4722256776","Latitude":59.954215,"Longitude":10.866766,"CurrentState":"Open","OpeningHours":["6:30-21:00","6:30-21:00","6:30-21:00","6:30-21:00","6:30-21:00","9:00-20:00","11:00-20:00"],"Tag":""},{"Id":3391,"ExternalId":510,"Name":"AMMERUD T-BANE","ShortName":"AMMERUD T-BANE","Address":", 0958 OSLO","Telephone":"4722257008","Latitude":59.957932,"Longitude":10.871208,"CurrentState":"Open","OpeningHours":["6:30-21:00","6:30-21:00","6:30-21:00","6:30-21:00","6:30-21:00","9:00-19:00","10:00-20:00"],"Tag":""},{"Id":3392,"ExternalId":511,"Name":"GRORUD T-BANE","ShortName":"GRORUD T-BANE","Address":", 0963 OSLO","Telephone":"4722256147","Latitude":59.96144,"Longitude":10.88193,"CurrentState":"Open","OpeningHours":["5:30-21:00","5:30-21:00","5:30-21:00","5:30-21:00","5:30-21:00","8:00-21:00","9:00-21:00"],"Tag":""},{"Id":3393,"ExternalId":513,"Name":"STOVNER T-BANE","ShortName":"STOVNER T-BANE","Address":", 0985 OSLO","Telephone":"4722104792","Latitude":59.961076,"Longitude":10.927186,"CurrentState":"Open","OpeningHours":["6:00-20:00","6:00-20:00","6:00-20:00","6:00-20:00","6:00-20:00","9:00-20:00","10:00-20:00"],"Tag":""},{"Id":3394,"ExternalId":514,"Name":"LINDEBERG T-BANE","ShortName":"LINDEBERG T-BANE","Address":"JERIKOVEIEN 3, 1067 OSLO","Telephone":"4722301874","Latitude":59.93271,"Longitude":10.88136,"CurrentState":"Open","OpeningHours":["7:00-19:00","7:00-19:00","7:00-19:00","7:00-19:00","7:00-19:00","9:00-19:00","11:00-19:00"],"Tag":""},{"Id":3395,"ExternalId":515,"Name":"HAUGERUD T-BANE","ShortName":"HAUGERUD T-BANE","Address":"TVETENVEIEN 180, 0673 OSLO","Telephone":"4722324791","Latitude":59.9225572998693,"Longitude":10.855050443206,"CurrentState":"Open","OpeningHours":["6:30-19:00","6:30-19:00","6:30-19:00","6:30-19:00","6:30-19:00","9:00-18:00","11:00-18:00"],"Tag":""},{"Id":3396,"ExternalId":516,"Name":"TVEITA SENTER","ShortName":"TVEITA SENTER","Address":"PB 125 Tveita, 0617 OSLO","Telephone":"4722273688","Latitude":59.913246,"Longitude":10.841512,"CurrentState":"Open","OpeningHours":["6:00-21:00","6:00-21:00","6:00-21:00","6:00-21:00","6:00-21:00","8:00-19:00","10:00-20:00"],"Tag":""},{"Id":3397,"ExternalId":517,"Name":"SANDVIKA STORSENTER","ShortName":"SANDVIKA STORSENTER","Address":"BRODTKORBSGT.7, 1338 SANDVIKA","Telephone":"4767565686","Latitude":59.889626,"Longitude":10.522128,"CurrentState":"Open","OpeningHours":["10:00-21:00","10:00-21:00","10:00-21:00","10:00-21:00","10:00-21:00","9:00-19:00","0:00-0:00"],"Tag":""},{"Id":3398,"ExternalId":518,"Name":"FURUSET T-BANE","ShortName":"FURUSET T-BANE","Address":"1051 OSLO","Telephone":"4722304870","Latitude":59.9421567,"Longitude":10.8977444,"CurrentState":"Open","OpeningHours":["6:30-21:00","6:30-21:00","6:30-21:00","6:30-21:00","6:30-21:00","8:00-19:30","9:30-19:30"],"Tag":""},{"Id":3399,"ExternalId":519,"Name":"VESTLI T-BANE","ShortName":"VESTLI T-BANE","Address":"VESTLISVINGEN 190, 0968 OSLO","Telephone":"4722103174","Latitude":59.97288,"Longitude":10.92889,"CurrentState":"Open","OpeningHours":["6:30-19:30","6:30-19:30","6:30-19:30","6:30-19:30","6:30-19:30","9:00-18:00","11:00-19:00"],"Tag":""},{"Id":3400,"ExternalId":521,"Name":"ELLINGSRUDÅSEN","ShortName":"ELLINGSRUDÅSEN","Address":", 1063 OSLO","Telephone":"4722300878","Latitude":59.931247,"Longitude":10.922812,"CurrentState":"Open","OpeningHours":["7:00-19:00","7:00-19:00","7:00-19:00","7:00-19:00","7:00-19:00","9:00-19:00","11:00-18:00"],"Tag":""},{"Id":3401,"ExternalId":524,"Name":"OPPSAL TBANE","ShortName":"OPPSAL TBANE","Address":"OPPSALVEIEN 36, 0686 OSLO","Telephone":"4722264749","Latitude":59.892866,"Longitude":10.840234,"CurrentState":"Open","OpeningHours":["6:00-21:00","6:00-21:00","6:00-21:00","6:00-21:00","6:00-21:00","8:00-21:00","9:00-21:00"],"Tag":""},{"Id":3402,"ExternalId":526,"Name":"BØLER TBANE","ShortName":"BØLER TBANE","Address":", 0689 OSLO","Telephone":"4722262417","Latitude":59.882922,"Longitude":10.849257,"CurrentState":"Open","OpeningHours":["7:00-21:00","7:00-21:00","7:00-21:00","7:00-21:00","7:00-21:00","9:00-21:00","11:00-21:00"],"Tag":""},{"Id":3403,"ExternalId":527,"Name":"BOGERUD TBANE","ShortName":"BOGERUD TBANE","Address":", 0692 OSLO","Telephone":"4722290215","Latitude":59.875828,"Longitude":10.842218,"CurrentState":"Open","OpeningHours":["7:00-19:00","7:00-19:00","7:00-19:00","7:00-19:00","7:00-19:00","9:00-18:00","11:00-18:00"],"Tag":""},{"Id":3404,"ExternalId":528,"Name":"STOVNER SENTER","ShortName":"STOVNER SENTER","Address":"PB 55,0913Oslo, Stovner Senter 3, 0985 OSLO","Telephone":"4722108652","Latitude":59.961076,"Longitude":10.927186,"CurrentState":"Open","OpeningHours":["8:00-21:00","8:00-21:00","8:00-21:00","8:00-21:00","8:00-21:00","9:00-18:00","0:00-0:00"],"Tag":""},{"Id":3405,"ExternalId":530,"Name":"STOVNER SENTER","ShortName":"STOVNER SENTER","Address":"Stovner Senter 3, 0985 OSLO","Telephone":"4722104647","Latitude":59.962489,"Longitude":10.924499,"CurrentState":"Open","OpeningHours":["8:30-21:00","8:30-21:00","8:30-21:00","8:30-21:00","8:30-21:00","8:30-19:00","0:00-0:00"],"Tag":""},{"Id":3406,"ExternalId":531,"Name":"MORTENSRUD SENTER","ShortName":"MORTENSRUD SENTER","Address":"LOFSRUDV.6, 1281 OSLO","Telephone":"4722623494","Latitude":59.84782,"Longitude":10.828617,"CurrentState":"Open","OpeningHours":["6:30-20:30","6:30-20:30","6:30-20:30","6:30-20:30","6:30-20:30","9:00-19:30","11:00-18:00"],"Tag":""},{"Id":3408,"ExternalId":535,"Name":"GRENSESVINGEN HELSFYR","ShortName":"GRENSESVINGEN HELSFY","Address":"Grensesvingen 6, 0661 OSLO","Telephone":"4722630279","Latitude":59.9130371823073,"Longitude":10.7992015728814,"CurrentState":"Open","OpeningHours":["7:00-20:30","7:00-20:30","7:00-20:30","7:00-20:30","7:00-20:30","10:00-19:30","11:00-18:00"],"Tag":""},{"Id":3409,"ExternalId":536,"Name":"TORGET VEST","ShortName":"TORGET VEST","Address":"RÅDHUSGT. 2, 3016 DRAMMEN","Telephone":"4732838602","Latitude":59.745865,"Longitude":10.202446,"CurrentState":"Open","OpeningHours":["9:00-20:00","9:00-20:00","9:00-20:00","9:00-20:00","9:00-20:00","9:00-18:00","0:00-0:00"],"Tag":""},{"Id":3410,"ExternalId":537,"Name":"EIDSVOLL JB.ST.","ShortName":"EIDSVOLL JB.ST.","Address":"JERNBANESTASJONEN, 2080 EIDSVOLL","Telephone":"4763954730","Latitude":60.3301910225333,"Longitude":11.2466872479126,"CurrentState":"Open","OpeningHours":["6:30-17:30","6:30-17:30","6:30-17:30","6:30-17:30","6:30-17:30","9:00-14:00","13:00-17:30"],"Tag":""},{"Id":3411,"ExternalId":538,"Name":"ULLEVÅL STADION","ShortName":"ULLEVÅL STADION","Address":"SOGNSVN. 75, 0855 OSLO","Telephone":"4722589528","Latitude":59.948445,"Longitude":10.735268,"CurrentState":"Open","OpeningHours":["9:00-19:00","9:00-19:00","9:00-19:00","9:00-19:00","9:00-19:00","9:00-18:00","0:00-0:00"],"Tag":""},{"Id":3412,"ExternalId":542,"Name":"HOLMLIA SENTER","ShortName":"HOLMLIA SENTER","Address":"HOLMLIA SENT. V. 17, 1255 OSLO","Telephone":"4722610595","Latitude":59.835019,"Longitude":10.795636,"CurrentState":"Open","OpeningHours":["6:30-22:00","6:30-22:00","6:30-22:00","6:30-22:00","6:30-22:00","9:00-22:00","10:00-22:00"],"Tag":""},{"Id":3413,"ExternalId":553,"Name":"VINDERN SENTER","ShortName":"VINDERN SENTER","Address":"SLEMDALSV. 72, 0373 OSLO","Telephone":"4722144006","Latitude":59.943915,"Longitude":10.706578,"CurrentState":"Open","OpeningHours":["7:00-20:00","7:00-20:00","7:00-20:00","7:00-20:00","7:00-20:00","9:00-19:00","11:00-18:00"],"Tag":""},{"Id":3414,"ExternalId":563,"Name":"LILLESTRØM SYD","ShortName":"LILLESTRØM SYD","Address":"JERNBANESTASJONEN, 2000 LILLESTRØM","Telephone":"4763819713","Latitude":59.954599,"Longitude":11.047237,"CurrentState":"Open","OpeningHours":["6:00-20:00","6:00-20:00","6:00-20:00","6:00-20:00","6:00-20:00","9:00-19:00","9:00-19:00"],"Tag":""},{"Id":3415,"ExternalId":570,"Name":"AKER BRYGGE","ShortName":"AKER BRYGGE","Address":"BRYGGEGT. 16, 0250 OSLO","Telephone":"4722832507","Latitude":59.91017,"Longitude":10.72523,"CurrentState":"Open","OpeningHours":["7:00-23:00","7:00-23:00","7:00-23:00","7:00-23:00","7:00-23:00","9:30-23:30","11:00-23:00"],"Tag":""},{"Id":3416,"ExternalId":571,"Name":"HOVSETER ST.","ShortName":"HOVSETER ST.","Address":"GML HOVSETERV 2, 0768 OSLO","Telephone":"4722142278","Latitude":59.94762,"Longitude":10.654847,"CurrentState":"Open","OpeningHours":["7:00-21:00","7:00-21:00","7:00-21:00","7:00-21:00","7:00-21:00","9:00-21:00","11:00-21:00"],"Tag":""},{"Id":3417,"ExternalId":575,"Name":"BEKKESTUA H.HUS","ShortName":"BEKKESTUA H.HUS","Address":"Bærumsveien 204, 1357 BEKKESTUA","Telephone":"4767533628","Latitude":59.91787,"Longitude":10.58968,"CurrentState":"Open","OpeningHours":["7:00-20:00","7:00-20:00","7:00-20:00","7:00-20:00","7:00-20:00","9:00-18:00","11:00-18:00"],"Tag":""},{"Id":3418,"ExternalId":576,"Name":"RADIUMHOSPITALET","ShortName":"RADIUMHOSPITALET","Address":"ULLERNCH. 70, 0310 OSLO","Telephone":"4722523757","Latitude":59.929532,"Longitude":10.659734,"CurrentState":"Open","OpeningHours":["7:00-20:30","7:00-20:30","7:00-20:30","7:00-20:30","7:00-20:00","9:00-16:00","12:00-17:00"],"Tag":""},{"Id":3419,"ExternalId":580,"Name":"ENSJØ TBANE","ShortName":"ENSJØ TBANE","Address":"ENSJØVEIEN 21, 0661 OSLO","Telephone":"4722678235","Latitude":59.91426,"Longitude":10.78744,"CurrentState":"Open","OpeningHours":["6:00-20:00","6:00-20:00","6:00-20:00","6:00-20:00","6:00-20:00","9:30-18:30","10:30-20:00"],"Tag":""},{"Id":3420,"ExternalId":581,"Name":"HELSFYR TBANESTASJON","ShortName":"HELSFYR TBANESTASJON","Address":", 0660 OSLO","Telephone":"4722678789","Latitude":59.9127664066245,"Longitude":10.8016007924743,"CurrentState":"Open","OpeningHours":["5:45-20:00","5:45-20:00","5:45-20:00","5:45-20:00","5:45-20:00","9:00-19:00","11:00-18:00"],"Tag":""},{"Id":3421,"ExternalId":582,"Name":"BRYNSENG TBANESTASJO","ShortName":"BRYNSENG T-BANE","Address":"ØSTENSJØVEIEN 45, 0667 OSLO","Telephone":"4722658326","Latitude":59.9093,"Longitude":10.8131,"CurrentState":"Open","OpeningHours":["6:30-18:30","6:30-18:30","6:30-18:30","6:30-18:30","6:30-18:30","10:00-17:00","0:00-0:00"],"Tag":""},{"Id":3422,"ExternalId":583,"Name":"BØLER SENTER","ShortName":"BØLER SENTER","Address":"UTMARKVEIEN 1, 0689 OSLO","Telephone":"4722276285","Latitude":59.883456,"Longitude":10.845939,"CurrentState":"Open","OpeningHours":["10:00-19:00","10:00-19:00","10:00-19:00","10:00-19:00","10:00-19:00","10:00-18:00","0:00-0:00"],"Tag":""},{"Id":3423,"ExternalId":585,"Name":"KARLSRUD TBANESTASJO","ShortName":"KARLSRUD TBANESTASJO","Address":"RASCHSVEI 42, 1153 OSLO","Telephone":"4722282963","Latitude":59.880526,"Longitude":10.805274,"CurrentState":"Open","OpeningHours":["6:30-19:30","6:30-19:30","6:30-19:30","6:30-19:30","6:30-19:30","9:00-19:30","11:00-19:30"],"Tag":""},{"Id":3424,"ExternalId":586,"Name":"BERGKRYSTALLEN","ShortName":"BERGKRYSTALLEN","Address":", 1155 OSLO","Telephone":"4722284256","Latitude":59.869078,"Longitude":10.819512,"CurrentState":"Open","OpeningHours":["6:30-21:00","6:30-21:00","6:30-21:00","6:30-21:00","6:30-21:00","9:00-21:00","10:00-21:00"],"Tag":""},{"Id":3425,"ExternalId":587,"Name":"MUNKELIA TBANE","ShortName":"MUNKELIA TBANE","Address":", 1150 OSLO","Telephone":"4722281569","Latitude":59.867654,"Longitude":10.813517,"CurrentState":"Open","OpeningHours":["7:00-20:30","7:00-20:30","7:00-20:30","7:00-20:30","7:00-20:30","9:00-19:00","11:00-21:00"],"Tag":""},{"Id":3426,"ExternalId":588,"Name":"LAMBERTSETER","ShortName":"LAMBERTSETER","Address":"LAMBERTSETER SENTER, 1150 OSLO","Telephone":"4722280013","Latitude":59.873742,"Longitude":10.812178,"CurrentState":"Open","OpeningHours":["6:30-20:30","6:30-20:30","6:30-20:30","6:30-20:30","6:30-20:30","8:30-20:30","10:00-20:30"],"Tag":""},{"Id":3427,"ExternalId":589,"Name":"DRØBAK CITY","ShortName":"DRØBAK CITY","Address":"HOLTERVN. 3, 1440 DRØBAK","Telephone":"4764934308","Latitude":59.673229,"Longitude":10.658664,"CurrentState":"Open","OpeningHours":["10:00-20:00","10:00-20:00","10:00-20:00","10:00-20:00","10:00-20:00","9:00-18:00","0:00-0:00"],"Tag":""},{"Id":3428,"ExternalId":591,"Name":"MANGLERUD TBANE","ShortName":"MANGLERUD TBANE","Address":"PLOGVEIEN 4, 0679 OSLO","Telephone":"4722264392","Latitude":59.897741,"Longitude":10.812081,"CurrentState":"Open","OpeningHours":["6:30-21:30","6:30-21:30","6:30-21:30","6:30-21:30","6:30-21:30","9:00-21:30","10:00-21:30"],"Tag":""},{"Id":3429,"ExternalId":593,"Name":"TORSHOV","ShortName":"TORSHOV","Address":"TORSHOVGT. 6, 0476 OSLO","Telephone":"4722373293","Latitude":59.934031,"Longitude":10.763489,"CurrentState":"Open","OpeningHours":["7:00-23:00","7:00-23:00","7:00-23:00","7:00-23:00","7:00-0:00","9:00-0:00","9:00-23:00"],"Tag":""},{"Id":3430,"ExternalId":599,"Name":"RAM og ROM BYPORTEN","ShortName":"RAM OG ROM BYPORTEN","Address":"JERNB.TORGET 6, 0154 OSLO","Telephone":"4722179805","Latitude":59.910645,"Longitude":10.750092,"CurrentState":"Open","OpeningHours":["6:30-22:00","6:30-22:00","6:30-22:00","6:30-22:00","6:30-22:00","9:00-19:00","12:00-20:00"],"Tag":""},{"Id":3431,"ExternalId":600,"Name":"HARSTAD SYKEHUS","ShortName":"HARSTAD SYKEHUS","Address":", 9480 HARSTAD","Telephone":"4777062135","Latitude":68.795965,"Longitude":16.526865,"CurrentState":"Open","OpeningHours":["7:00-20:00","7:00-20:00","7:00-20:00","7:00-20:00","7:00-20:00","10:00-16:00","12:00-17:00"],"Tag":""},{"Id":3432,"ExternalId":602,"Name":"STORGATEN","ShortName":"Tempogården","Address":"STORGT.67, 9008 TROMSØ","Telephone":"4777630760","Latitude":69.649686,"Longitude":18.955987,"CurrentState":"Open","OpeningHours":["7:00-23:30","7:00-23:30","7:00-23:30","7:00-23:30","7:00-23:30","9:00-23:30","10:00-23:30"],"Tag":""},{"Id":3433,"ExternalId":603,"Name":"FINNSNES AMFI","ShortName":"FINNSNES AMFI","Address":"Storgt. 7, 9300 FINNSNES","Telephone":"4777840622","Latitude":69.229348,"Longitude":17.980791,"CurrentState":"Open","OpeningHours":["10:00-19:00","10:00-19:00","10:00-19:00","10:00-19:00","10:00-19:00","10:00-18:00","0:00-0:00"],"Tag":""},{"Id":3434,"ExternalId":604,"Name":"KJELDSBERG KIOSK","ShortName":"KJELDSBERG KIOSK","Address":"SORENSKRIVERVN.15, 9511 ALTA","Telephone":"4778435410","Latitude":69.960904,"Longitude":23.228146,"CurrentState":"Open","OpeningHours":["9:00-21:00","9:00-21:00","9:00-21:00","9:00-21:00","9:00-22:00","10:00-22:00","10:00-22:00"],"Tag":""},{"Id":3435,"ExternalId":606,"Name":"BÅTSFJORD SENTER","ShortName":"BÅTSFJORD SENTER","Address":"HAVNEGT. 2-4, 9990 BÅTSFJORD","Telephone":"4778983411","Latitude":70.637059,"Longitude":29.725603,"CurrentState":"Open","OpeningHours":["9:00-22:00","9:00-22:00","9:00-22:00","9:00-22:00","9:00-22:00","9:00-22:00","11:00-22:00"],"Tag":""},{"Id":3436,"ExternalId":609,"Name":"HONNINGSVÅG","ShortName":"HONNINGSVÅG","Address":"HOLMEN 4, 9750 HONNINGSVÅG","Telephone":"4778472289","Latitude":70.9817,"Longitude":25.9698,"CurrentState":"Open","OpeningHours":["8:00-22:00","8:00-22:00","8:00-22:00","8:00-22:00","8:00-22:00","9:00-22:00","11:00-22:00"],"Tag":""},{"Id":3437,"ExternalId":611,"Name":"HAMMERFEST","ShortName":"HAMMERFEST","Address":"SJØGATA, 9600 HAMMERFEST","Telephone":"4778412395","Latitude":70.66284,"Longitude":23.682429,"CurrentState":"Open","OpeningHours":["8:00-22:00","8:00-22:00","8:00-22:00","8:00-22:00","8:00-22:00","9:00-22:00","11:00-22:00"],"Tag":""},{"Id":3438,"ExternalId":613,"Name":"BERLEVÅG","ShortName":"BERLEVÅG","Address":"STORGATA 6, 9980 BERLEVÅG","Telephone":"4778981055","Latitude":70.8586,"Longitude":29.087,"CurrentState":"Open","OpeningHours":["8:30-22:00","8:30-22:00","8:30-22:00","8:30-22:00","8:30-22:00","9:30-22:00","11:00-22:00"],"Tag":""},{"Id":3439,"ExternalId":614,"Name":"HAMMERFEST SYKEHUS","ShortName":"HAMMERFEST SYKEHUS","Address":"SYKEHUSVEIEN 35, 9613 HAMMERFEST","Telephone":"4778412386","Latitude":70.6730249,"Longitude":23.6716097,"CurrentState":"Open","OpeningHours":["7:30-20:00","7:30-20:00","7:30-20:00","7:30-20:00","7:30-20:00","10:00-17:00","11:00-17:00"],"Tag":""},{"Id":3440,"ExternalId":615,"Name":"VIKING GJESTEG.","ShortName":"VIKING GJESTEG.","Address":"STORGATA 73, 8480 ANDENES","Telephone":"4776141344","Latitude":69.314155,"Longitude":16.119293,"CurrentState":"Open","OpeningHours":["9:00-22:00","9:00-22:00","9:00-22:00","9:00-22:00","9:00-22:00","10:00-22:00","11:00-22:00"],"Tag":""},{"Id":3441,"ExternalId":617,"Name":"ODDA","ShortName":"ODDA","Address":"Eitrheimsveien 10, 5750 ODDA","Telephone":"4753644278","Latitude":60.069211,"Longitude":6.545712,"CurrentState":"Open","OpeningHours":["8:30-21:00","8:30-21:00","8:30-21:00","8:30-21:00","8:30-21:00","8:30-21:00","9:00-21:00"],"Tag":""},{"Id":3442,"ExternalId":619,"Name":"Stortorget Tromsø","ShortName":"Stortorget 4","Address":"STORTORVET 4, 9008 TROMSØ","Telephone":"4777686774","Latitude":69.6511252942205,"Longitude":18.9584383741021,"CurrentState":"Open","OpeningHours":["7:00-0:00","7:00-0:00","7:00-0:00","7:00-0:00","7:00-4:00","9:00-4:00","10:00-0:00"],"Tag":""},{"Id":3443,"ExternalId":620,"Name":"HAMMERFEST","ShortName":"IDRETTSVEIEN","Address":"IDRETTSV. 17, 9615 HAMMERFEST","Telephone":"4778412329","Latitude":70.663422,"Longitude":23.698594,"CurrentState":"Open","OpeningHours":["8:00-21:00","8:00-21:00","8:00-21:00","8:00-21:00","8:00-21:00","9:00-21:00","10:00-21:00"],"Tag":""},{"Id":3444,"ExternalId":621,"Name":"LØDINGEN","ShortName":"LØDINGEN","Address":"SJØVEIEN 7, 8550 LØDINGEN","Telephone":"4776931359","Latitude":68.413916,"Longitude":15.995386,"CurrentState":"Open","OpeningHours":["9:00-22:00","9:00-22:00","9:00-22:00","9:00-22:00","9:00-22:00","9:00-22:00","10:00-22:00"],"Tag":""},{"Id":3447,"ExternalId":629,"Name":"KARASJOK","ShortName":"KARASJOK","Address":"STORGATEN, PB 116, 9735 KARASJOK","Telephone":"4778466791","Latitude":69.472633,"Longitude":25.51896,"CurrentState":"Open","OpeningHours":["10:00-23:00","10:00-23:00","10:00-23:00","10:00-23:00","10:00-23:00","10:00-23:00","12:00-23:00"],"Tag":""},{"Id":3448,"ExternalId":630,"Name":"AMFI  ØRSTA","ShortName":"AMFI  ØRSTA","Address":"VIKEØYRANE 4, 6150 ØRSTA","Telephone":"4770067162","Latitude":62.2001,"Longitude":6.1258,"CurrentState":"Open","OpeningHours":["9:00-20:00","9:00-20:00","9:00-20:00","9:00-20:00","9:00-20:00","9:00-18:00","12:00-18:00"],"Tag":""},{"Id":3449,"ExternalId":631,"Name":"VOLDA","ShortName":"VOLDA","Address":"HAMNEG. 13, 6100 VOLDA","Telephone":"4770076148","Latitude":62.1451,"Longitude":6.0658,"CurrentState":"Open","OpeningHours":["10:00-21:30","10:00-21:30","10:00-21:30","10:00-21:30","10:00-21:30","10:00-21:30","11:00-21:30"],"Tag":""},{"Id":3450,"ExternalId":633,"Name":"NORDFJORDEID","ShortName":"NORDFJORDEID","Address":"EIDSGATEN 9, 6770  NORDFJORDEID","Telephone":"4757860155","Latitude":61.906952,"Longitude":5.989574,"CurrentState":"Open","OpeningHours":["9:00-22:00","9:00-22:00","9:00-22:00","9:00-22:00","9:00-22:00","9:00-22:00","11:00-22:00"],"Tag":""},{"Id":3451,"ExternalId":634,"Name":"RUTEBILSTASJONEN","ShortName":"RUTEBILSTASJONEN","Address":"STOREHAGEN 4, PB 14, 6801 FØRDE","Telephone":"4757821196","Latitude":61.452276,"Longitude":5.850592,"CurrentState":"Open","OpeningHours":["6:30-22:00","6:30-22:00","6:30-22:00","6:30-22:00","6:30-22:00","8:00-22:00","9:00-22:00"],"Tag":""},{"Id":3452,"ExternalId":635,"Name":"HØYANGER","ShortName":"HØYANGER","Address":"STORG. 17, 6991 HØYANGER","Telephone":"4757712228","Latitude":61.219036,"Longitude":6.073645,"CurrentState":"Open","OpeningHours":["9:00-21:00","9:00-21:00","9:00-21:00","9:00-21:00","9:00-21:00","9:00-23:00","11:00-23:00"],"Tag":""},{"Id":3454,"ExternalId":642,"Name":"MÅLØY","ShortName":"MÅLØY","Address":"GATE 1, 6701  MÅLØY","Telephone":"4757851348","Latitude":61.9349,"Longitude":5.1132,"CurrentState":"Open","OpeningHours":["9:00-21:00","9:00-21:00","9:00-21:00","9:00-21:00","9:00-21:00","9:00-19:00","11:00-21:00"],"Tag":""},{"Id":3455,"ExternalId":643,"Name":"Narvesen Handelshuset","ShortName":"Narvesen HH","Address":"STOREHAGEN 9, 6801 FØRDE","Telephone":"4757720799","Latitude":61.452276,"Longitude":5.850592,"CurrentState":"Open","OpeningHours":["10:00-20:30","10:00-20:30","10:00-20:30","10:00-20:30","10:00-20:30","10:00-17:30","0:00-0:00"],"Tag":""},{"Id":3456,"ExternalId":645,"Name":"LAKSELV","ShortName":"LAKSELV","Address":"9700 LAKSELV","Telephone":"4778461387","Latitude":70.05184,"Longitude":24.96094,"CurrentState":"Open","OpeningHours":["9:30-22:00","9:30-22:00","9:30-22:00","9:30-22:00","9:30-22:00","10:00-22:00","12:00-22:00"],"Tag":""},{"Id":3457,"ExternalId":647,"Name":"STRYN","ShortName":"STRYN","Address":"TONNINGSGT. 14, PB 233, 6781 STRYN","Telephone":"4757871734","Latitude":61.903958,"Longitude":6.72172,"CurrentState":"Open","OpeningHours":["9:00-20:00","9:00-20:00","9:00-20:00","9:00-20:00","9:00-20:00","10:00-20:00","11:00-20:00"],"Tag":""},{"Id":3458,"ExternalId":650,"Name":"STORD","ShortName":"STORD","Address":"BORGGT. 3, 5402 STORD","Telephone":"4753410600","Latitude":59.780756,"Longitude":5.500572,"CurrentState":"Open","OpeningHours":["8:00-21:00","8:00-21:00","8:00-21:00","8:00-21:00","8:00-21:00","8:00-19:00","10:00-19:00"],"Tag":""},{"Id":3459,"ExternalId":651,"Name":"FLORØ","ShortName":"FLORØ","Address":"STRANDG. 35, 6900 FLORØ","Telephone":"4757742282","Latitude":61.600204,"Longitude":5.033394,"CurrentState":"Open","OpeningHours":["8:30-21:00","8:30-21:00","8:30-21:00","8:30-21:00","8:30-21:00","10:00-21:00","10:00-21:00"],"Tag":""},{"Id":3461,"ExternalId":655,"Name":"HARSTAD","ShortName":"HARSTAD","Address":"BYTERMINALEN, 9405 HARSTAD","Telephone":"4777062282","Latitude":68.798,"Longitude":16.532853,"CurrentState":"Open","OpeningHours":["7:00-21:00","7:00-21:00","7:00-21:00","7:00-21:00","7:00-21:00","9:00-21:00","11:00-20:00"],"Tag":""},{"Id":3462,"ExternalId":656,"Name":"SORTLAND","ShortName":"SORTLAND","Address":"STRANDGT. 35, 8401 SORTLAND","Telephone":"4776121975","Latitude":68.693206,"Longitude":15.415312,"CurrentState":"Open","OpeningHours":["7:30-20:00","7:30-20:00","7:30-20:00","7:30-20:00","7:30-20:00","8:30-19:00","0:00-0:00"],"Tag":""},{"Id":3463,"ExternalId":657,"Name":"GRANDHJØRNET","ShortName":"GRANDHJØRNET","Address":"STRANDGT. 9, 9405 HARSTAD","Telephone":"4777063811","Latitude":68.80103,"Longitude":16.5422,"CurrentState":"Open","OpeningHours":["7:30-23:00","7:30-23:00","7:30-23:00","7:30-23:00","7:30-23:00","10:00-4:00","11:00-23:00"],"Tag":""},{"Id":3464,"ExternalId":658,"Name":"VADSØ","ShortName":"VADSØ","Address":"RÅDHUSGT. 6/PB 600, 9811 VADSØ","Telephone":"4778953225","Latitude":70.0735,"Longitude":29.7503,"CurrentState":"Open","OpeningHours":["9:00-22:00","9:00-22:00","9:00-22:00","9:00-22:00","9:00-22:00","9:00-22:00","12:00-22:00"],"Tag":""},{"Id":3465,"ExternalId":659,"Name":"NORDLANDSSYKEHUSET","ShortName":"NORDLANDSSYKEHUSET","Address":"8092  BODØ","Telephone":"4775522800","Latitude":67.28409,"Longitude":14.39793,"CurrentState":"Open","OpeningHours":["7:00-21:00","7:00-21:00","7:00-21:00","7:00-21:00","7:00-21:00","9:00-20:00","11:00-20:00"],"Tag":""},{"Id":3467,"ExternalId":669,"Name":"SØRNESBYGGET","ShortName":"SØRNESBYGGET","Address":"DR. WESSELSGT. 19, 9915 KIRKENES","Telephone":"4778992320","Latitude":69.72781,"Longitude":30.0449,"CurrentState":"Open","OpeningHours":["8:00-22:00","8:00-22:00","8:00-22:00","8:00-22:00","8:00-22:00","9:00-0:00","11:00-22:00"],"Tag":""},{"Id":3468,"ExternalId":671,"Name":"ØVRE FLESLAND, 2.ETG","ShortName":"ØVRE FLESLAND, 2.ETG","Address":"FLYPLASSVEIEN 555, 5869 BERGEN","Telephone":"4755998167","Latitude":60.294093,"Longitude":5.226325,"CurrentState":"Open","OpeningHours":["5:00-22:30","5:00-22:30","5:00-22:30","5:00-22:30","5:00-22:30","5:00-19:00","9:00-22:30"],"Tag":""},{"Id":3469,"ExternalId":675,"Name":"KROKEN F.SENTER","ShortName":"KROKEN F.SENTER","Address":"ANT. BORCHSVEI 5, 9022 KROKELVDALEN","Telephone":"4777630500","Latitude":69.68411,"Longitude":19.0716,"CurrentState":"Open","OpeningHours":["8:00-22:00","8:00-22:00","8:00-22:00","8:00-22:00","8:00-23:00","9:00-23:00","10:00-22:00"],"Tag":""},{"Id":3470,"ExternalId":676,"Name":"MEYER KJØPESENTER","ShortName":"MEYER KJØPESENTER","Address":"O T OLSENSG. 22, 8622  MO","Telephone":"4775169730","Latitude":66.31084,"Longitude":14.13504,"CurrentState":"Open","OpeningHours":["9:00-21:00","9:00-21:00","9:00-21:00","9:00-21:00","9:00-21:00","9:00-21:00","0:00-0:00"],"Tag":""},{"Id":3471,"ExternalId":679,"Name":"ALTA CITY","ShortName":"ALTA CITY","Address":"LØKKEVEIEN 43, 9510 ALTA","Telephone":"4778434691","Latitude":69.966755,"Longitude":23.271024,"CurrentState":"Open","OpeningHours":["9:00-22:00","9:00-22:00","9:00-22:00","9:00-22:00","9:00-4:00","10:00-4:00","11:00-22:00"],"Tag":""},{"Id":3473,"ExternalId":682,"Name":"ALTA STORSENTER","ShortName":"ALTA STORSENTER","Address":"MARKEDSGT. 21, 9504 ALTA","Telephone":"4778442903","Latitude":69.966043,"Longitude":23.271162,"CurrentState":"Open","OpeningHours":["10:00-20:00","10:00-20:00","10:00-20:00","10:00-20:00","10:00-20:00","10:00-18:00","0:00-0:00"],"Tag":""},{"Id":3474,"ExternalId":685,"Name":"KIRKENES LUFTHAVN","ShortName":"KIRKENES LUFTHAVN","Address":"Høybuktmoen, 9912 HESSENG","Telephone":"4778996889","Latitude":69.7229557661373,"Longitude":29.8919648677111,"CurrentState":"Open","OpeningHours":["9:00-21:00","9:00-21:00","9:00-21:00","9:00-21:00","9:00-21:00","9:00-13:00","9:30-23:00"],"Tag":""},{"Id":3475,"ExternalId":686,"Name":"SJØVEGAN","ShortName":"SJØVEGAN","Address":"KONGSVN. 78 A, 9350 SJØVEGAN","Telephone":"4777171460","Latitude":68.877158,"Longitude":17.831719,"CurrentState":"Open","OpeningHours":["9:00-22:00","9:00-22:00","9:00-22:00","9:00-22:00","9:00-22:00","9:00-22:00","12:00-22:00"],"Tag":""},{"Id":3476,"ExternalId":687,"Name":"Torvet ","ShortName":"TORVET ","Address":"Torvet  8300 SVOLVÆR","Telephone":"4776071108","Latitude":68.23418,"Longitude":14.56693,"CurrentState":"Open","OpeningHours":["8:30-23:00","8:30-23:00","8:30-23:00","8:30-23:00","8:30-23:00","9:00-23:00","10:30-23:00"],"Tag":""},{"Id":3477,"ExternalId":688,"Name":"JEKTA ØST","ShortName":"JEKTA ØST","Address":"HEILOVN. 19, 9266 TROMSØ","Telephone":"4797471272","Latitude":69.67496,"Longitude":18.929268,"CurrentState":"Open","OpeningHours":["9:30-21:00","9:30-21:00","9:30-21:00","9:30-21:00","9:30-21:00","9:30-18:00","0:00-0:00"],"Tag":""},{"Id":3478,"ExternalId":689,"Name":"SVOLVÆR AMFI","ShortName":"SVOLVÆR AMFI","Address":"TORVET, 8300 SVOLVÆR","Telephone":"4776071052","Latitude":68.2334,"Longitude":14.5587,"CurrentState":"Open","OpeningHours":["9:00-20:00","9:00-20:00","9:00-20:00","9:00-20:00","9:00-20:00","9:00-19:00","0:00-0:00"],"Tag":""},{"Id":3479,"ExternalId":693,"Name":"NARVIK AMFI","ShortName":"NARVIK AMFI","Address":"BOLAGSGT. 1, 8514 NARVIK","Telephone":"4776946323","Latitude":68.437763,"Longitude":17.421143,"CurrentState":"Open","OpeningHours":["9:00-20:00","9:00-20:00","9:00-20:00","9:00-20:00","9:00-20:00","9:00-18:00","11:00-17:00"],"Tag":""},{"Id":3480,"ExternalId":694,"Name":"FUTURASENTERET","ShortName":"FUTURASENTERET","Address":"PB 2172 LØKKEMYRA, 6501 KRISTIANSUND N","Telephone":"4771584284","Latitude":63.110919,"Longitude":7.780805,"CurrentState":"Open","OpeningHours":["9:30-20:00","9:30-20:00","9:30-20:00","9:30-20:00","9:30-20:00","9:30-18:00","0:00-0:00"],"Tag":""},{"Id":3481,"ExternalId":697,"Name":"GRAVDAL ","ShortName":"GRAVDAL ","Address":"GRAVDALSGT. 32, 8372 GRAVDAL","Telephone":"4776081543","Latitude":68.11897,"Longitude":13.5507,"CurrentState":"Open","OpeningHours":["9:00-23:00","9:00-23:00","9:00-23:00","9:00-23:00","9:00-23:00","10:00-23:00","11:00-23:00"],"Tag":""},{"Id":3483,"ExternalId":702,"Name":"LAGUNEN STORSENTER","ShortName":"LAGUNEN STORSENTER","Address":"LAGUNEVEIEN 1, 5239 RÅDAL","Telephone":"4755913325","Latitude":60.29686,"Longitude":5.33112,"CurrentState":"Open","OpeningHours":["9:30-21:00","9:30-21:00","9:30-21:00","9:30-21:00","9:30-21:00","9:30-18:00","0:00-0:00"],"Tag":""},{"Id":3484,"ExternalId":703,"Name":"BØRSEN","ShortName":"BØRSEN","Address":"BRAGERN.TORV13, 5035 DRAMMEN","Telephone":"4732832951","Latitude":59.745106,"Longitude":10.213453,"CurrentState":"Open","OpeningHours":["8:30-20:00","8:30-20:00","8:30-20:00","8:30-20:00","8:30-20:00","9:00-18:00","0:00-0:00"],"Tag":""},{"Id":3485,"ExternalId":709,"Name":"ØYRANE TORG","ShortName":"ØYRANE TORG","Address":"ODNAVN.63/PB.260, 5888 BERGEN","Telephone":"4798603434","Latitude":60.420972,"Longitude":5.465933,"CurrentState":"Open","OpeningHours":["9:00-21:00","9:00-21:00","9:00-21:00","9:00-21:00","9:00-21:00","9:00-20:00","12:00-20:00"],"Tag":""},{"Id":3486,"ExternalId":710,"Name":"AMFISENTERET","ShortName":"AMFISENTERET","Address":"INDUSTRIGT. 4, 5700 VOSS","Telephone":"4756518961","Latitude":60.628605,"Longitude":6.433002,"CurrentState":"Open","OpeningHours":["9:30-20:00","9:30-20:00","9:30-20:00","9:30-20:00","9:30-20:00","9:30-18:00","0:00-0:00"],"Tag":""},{"Id":3487,"ExternalId":717,"Name":"TROMSØ","ShortName":"TROMSØ","Address":"STORGT. 55, 9008 TROMSØ","Telephone":"4777687381","Latitude":69.6510875,"Longitude":18.9584088,"CurrentState":"Open","OpeningHours":["7:30-22:00","7:30-22:00","7:30-22:00","7:30-2:30","7:30-4:00","9:00-4:00","10:00-22:00"],"Tag":""},{"Id":3488,"ExternalId":719,"Name":"K1 STORHANDEL ","ShortName":"K1 STORHANDEL ","Address":"KARLSØYVN. 1 A, 9015 TROMSØ","Telephone":"4777675355","Latitude":69.673665,"Longitude":18.921106,"CurrentState":"Open","OpeningHours":["7:00-22:00","7:00-22:00","7:00-22:00","7:00-22:00","7:00-22:00","8:00-21:00","11:00-22:00"],"Tag":""},{"Id":3489,"ExternalId":720,"Name":"UNN","ShortName":"UNN","Address":"Sykehusvegen 38, 9019 Tromsø","Telephone":"4777626132","Latitude":69.68389,"Longitude":18.98473,"CurrentState":"Open","OpeningHours":["7:00-21:30","7:00-21:30","7:00-21:30","7:00-21:30","7:00-21:30","9:00-20:00","10:00-21:00"],"Tag":""},{"Id":3490,"ExternalId":722,"Name":"SARTOR SENTER","ShortName":"SARTOR SENTER","Address":"SARTOR SENTER, 5353 STRAUME","Telephone":"4756314628","Latitude":60.35881,"Longitude":5.12547,"CurrentState":"Open","OpeningHours":["9:00-21:00","9:00-21:00","9:00-21:00","9:00-21:00","9:00-21:00","9:00-18:00","0:00-0:00"],"Tag":""},{"Id":3491,"ExternalId":747,"Name":" TORGALMENNINGEN","ShortName":" TORGALMENNINGEN","Address":"OLE BULLS PLASS, 5012 BERGEN","Telephone":"4755325451","Latitude":60.39242,"Longitude":5.321224,"CurrentState":"Open","OpeningHours":["7:00-0:00","7:00-0:00","7:00-0:00","7:00-1:00","7:00-4:00","8:00-4:00","9:00-0:00"],"Tag":""},{"Id":3493,"ExternalId":749,"Name":"NEDRE TORGET","ShortName":"NEDRE TORGET","Address":"NEDRE TORGET, 5014 BERGEN","Telephone":"4755315590","Latitude":60.3954917,"Longitude":5.3256775,"CurrentState":"Open","OpeningHours":["8:00-22:00","8:00-22:00","8:00-22:00","8:00-22:00","8:00-4:00","10:00-4:00","10:00-22:00"],"Tag":""},{"Id":3494,"ExternalId":751,"Name":"TRONDHEIM","ShortName":"TRONDHEIM","Address":"TH.ANGELLSGT. 21, 7011 TRONDHEIM","Telephone":"4773534544","Latitude":63.434566,"Longitude":10.398439,"CurrentState":"Open","OpeningHours":["7:00-19:00","7:00-19:00","7:00-19:00","7:00-19:00","7:00-19:00","9:00-18:00","0:00-0:00"],"Tag":""},{"Id":3496,"ExternalId":759,"Name":"HARBITTZHJØRNET","ShortName":"HARBITTZHJØRNET","Address":"TORGALMENNINGEN 1A, 5014 BERGEN","Telephone":"4755311795","Latitude":60.3940326,"Longitude":5.3246522,"CurrentState":"Open","OpeningHours":["7:00-23:00","7:00-23:00","7:00-23:00","7:00-23:00","7:00-4:00","9:00-4:00","10:00-23:00"],"Tag":""},{"Id":3498,"ExternalId":762,"Name":"OLAV KYRRESGATE","ShortName":"OLAV KYRRESGATE","Address":"OLAV KYRRESGATE, 5014 BERGEN","Telephone":"4755311666","Latitude":60.390924,"Longitude":5.323703,"CurrentState":"Open","OpeningHours":["6:30-21:00","6:30-21:00","6:30-21:00","6:30-21:00","6:30-21:00","9:00-19:00","11:00-18:00"],"Tag":""},{"Id":3499,"ExternalId":765,"Name":"OASEN BUTIKKSENTER","ShortName":"OASEN BUTIKKSENTER","Address":"PB 3598 FYLLINGSDALEN, 5845 BERGEN","Telephone":"4755161664","Latitude":60.349901,"Longitude":5.29165,"CurrentState":"Open","OpeningHours":["9:00-21:00","9:00-21:00","9:00-21:00","9:00-21:00","9:00-21:00","9:00-21:00","0:00-0:00"],"Tag":""},{"Id":3500,"ExternalId":767,"Name":"FLESLAND","ShortName":"FLESLAND","Address":"FLESLAND, 5069 BERGEN LUFTHAVN","Telephone":"4755103800","Latitude":60.294093,"Longitude":5.226325,"CurrentState":"Open","OpeningHours":["5:30-22:30","5:30-22:30","5:30-22:30","5:30-22:30","5:30-22:30","5:30-19:00","8:00-22:30"],"Tag":""},{"Id":3501,"ExternalId":768,"Name":"BYSTASJONEN","ShortName":"BYSTASJONEN","Address":", 5015 BERGEN","Telephone":"4755325906","Latitude":60.389561,"Longitude":5.331515,"CurrentState":"Open","OpeningHours":["6:00-23:00","6:00-23:00","6:00-23:00","6:00-23:00","6:00-23:00","8:00-23:00","9:00-23:00"],"Tag":""},{"Id":3502,"ExternalId":769,"Name":"SLETTEN SHOPP.","ShortName":"SLETTEN SHOPP.","Address":"VILH.BJERKESVEI 4/10, 5081 BERGEN","Telephone":"4755282312","Latitude":60.356391,"Longitude":5.358592,"CurrentState":"Open","OpeningHours":["8:00-20:00","8:00-20:00","8:00-20:00","8:00-20:00","8:00-20:00","9:00-19:00","11:00-17:00"],"Tag":""},{"Id":3503,"ExternalId":773,"Name":"VESTKANTEN","ShortName":"VESTKANTEN","Address":"LODDEFJORDVN. 2, 5171 LODDEFJORD","Telephone":"4755264975","Latitude":60.363609,"Longitude":5.233509,"CurrentState":"Open","OpeningHours":["9:00-21:00","9:00-21:00","9:00-21:00","9:00-21:00","9:00-21:00","9:00-18:30","0:00-0:00"],"Tag":""},{"Id":3504,"ExternalId":778,"Name":"ÅSANE SENTER","ShortName":"ÅSANE SENTER","Address":"BOKS 84 ULSET, 5873 BERGEN","Telephone":"4755182897","Latitude":60.466084,"Longitude":5.319953,"CurrentState":"Open","OpeningHours":["9:00-21:00","9:00-21:00","9:00-21:00","9:00-21:00","9:00-21:00","9:00-18:00","0:00-0:00"],"Tag":""},{"Id":3506,"ExternalId":801,"Name":"SAS-HOTELLET","ShortName":"SAS-HOTELLET","Address":"HOLBERGSG. 30, 0166 OSLO","Telephone":"4722206876","Latitude":59.918471,"Longitude":10.733452,"CurrentState":"Open","OpeningHours":["7:00-21:00","7:00-21:00","7:00-21:00","7:00-21:00","7:00-21:00","9:00-21:00","10:00-18:00"],"Tag":""},{"Id":3507,"ExternalId":802,"Name":"LOVISENBERG SYKEHUS","ShortName":"LOVISENBERG SYKEHUS","Address":"LOVISENBERGG.17, 0456 OSLO","Telephone":"4722716028","Latitude":59.9332947189897,"Longitude":10.7469288166612,"CurrentState":"Open","OpeningHours":["7:00-19:00","7:00-19:00","7:00-19:00","7:00-19:00","7:00-19:00","10:00-17:00","11:00-18:00"],"Tag":""},{"Id":3508,"ExternalId":803,"Name":"MAJORSTUA ST. PLATTF","ShortName":"MAJORSTUA ST. PLATTF","Address":"PLATTFORMEN, 0366 OSLO","Telephone":"4722604943","Latitude":59.931315,"Longitude":10.721206,"CurrentState":"Open","OpeningHours":["6:00-23:00","6:00-23:00","6:00-23:00","6:00-23:00","6:00-23:00","9:00-23:00","9:00-23:00"],"Tag":""},{"Id":3509,"ExternalId":804,"Name":"HOTELL CONTINENTAL","ShortName":"HOTELL CONTINENTAL","Address":"STORTINGS 24/26, 0161 OSLO","Telephone":"4722429564","Latitude":59.914072,"Longitude":10.734258,"CurrentState":"Open","OpeningHours":["7:00-23:00","7:00-23:00","7:00-23:00","7:00-23:00","7:00-0:00","9:00-0:00","11:00-23:00"],"Tag":""},{"Id":3510,"ExternalId":809,"Name":"EGERTORGET T-BANE","ShortName":"EGERTORGET T-BANE","Address":"EGERTORGET, 0159 OSLO","Telephone":"4722336928","Latitude":59.913165,"Longitude":10.741864,"CurrentState":"Open","OpeningHours":["6:30-21:30","6:30-21:30","6:30-21:30","6:30-21:30","6:30-21:30","8:30-21:30","12:00-19:00"],"Tag":""},{"Id":3511,"ExternalId":813,"Name":"VALKYRIEGATEN","ShortName":"VALKYRIEGATEN","Address":"VALKYRIEGT. 5, 0366 OSLO","Telephone":"4722696644","Latitude":59.928436,"Longitude":10.718256,"CurrentState":"Open","OpeningHours":["7:30-23:00","7:30-23:00","7:30-23:00","7:30-23:00","7:30-23:00","9:00-23:00","10:00-21:00"],"Tag":""},{"Id":3512,"ExternalId":814,"Name":"CC-VEST","ShortName":"CC-VEST","Address":"LILLEAKERV. 16, 0284 OSLO","Telephone":"4722733124","Latitude":59.91781,"Longitude":10.636757,"CurrentState":"Open","OpeningHours":["9:00-20:00","9:00-20:00","9:00-20:00","9:00-20:00","9:00-20:00","9:00-18:00","0:00-0:00"],"Tag":""},{"Id":3513,"ExternalId":815,"Name":"VIKATERASSENE","ShortName":"VIKATERASSENE","Address":"RUSELØKKV. 3, 0251 OSLO","Telephone":"4722832502","Latitude":59.913925,"Longitude":10.728744,"CurrentState":"Open","OpeningHours":["7:00-19:00","7:00-19:00","7:00-19:00","7:00-19:00","7:00-19:00","10:00-16:00","0:00-0:00"],"Tag":""},{"Id":3514,"ExternalId":816,"Name":"SANDAKER","ShortName":"SANDAKER","Address":"GREFSENVN.6, 0482 OSLO","Telephone":"4722227454","Latitude":59.941666,"Longitude":10.771518,"CurrentState":"Open","OpeningHours":["7:00-21:00","7:00-21:00","7:00-21:00","7:00-21:00","7:00-21:00","9:00-21:00","11:00-20:00"],"Tag":""},{"Id":3515,"ExternalId":824,"Name":"KARL JOH ROSENK.","ShortName":"KARL JOH ROSENK.","Address":"KARLJOH/ROSENK., 0162 OSLO","Telephone":"4722429922","Latitude":59.9137110024611,"Longitude":10.7384578557685,"CurrentState":"Open","OpeningHours":["7:30-21:00","7:30-21:00","7:30-21:00","7:30-21:00","7:30-4:00","9:00-4:00","11:00-20:00"],"Tag":""},{"Id":3516,"ExternalId":827,"Name":"LYSAKER JBST.","ShortName":"LYSAKER JBST.","Address":"LYSAKER JBST., 1366 LYSAKER","Telephone":"4767583635","Latitude":59.912838,"Longitude":10.637636,"CurrentState":"Open","OpeningHours":["6:00-21:00","6:00-21:00","6:00-21:00","6:00-21:00","6:00-21:00","9:00-19:00","10:00-21:00"],"Tag":""},{"Id":3517,"ExternalId":829,"Name":"TORGBYGGET","ShortName":"TORGBYGGET","Address":"NYDALSVN.33, 0401 OSLO","Telephone":"4722589040","Latitude":59.94886,"Longitude":10.767455,"CurrentState":"Open","OpeningHours":["7:00-21:00","7:00-21:00","7:00-21:00","7:00-21:00","7:00-21:00","9:00-20:00","10:00-20:00"],"Tag":""},{"Id":3518,"ExternalId":830,"Name":"SENTRALSTASJONEN","ShortName":"SENTRALSTASJONEN","Address":"SENTRALSTASJONEN, 0154 OSLO","Telephone":"4722170585","Latitude":59.910665,"Longitude":10.750045,"CurrentState":"Open","OpeningHours":["5:30-0:30","5:30-0:30","5:30-0:30","5:30-0:30","5:30-0:30","5:30-0:30","5:30-0:30"],"Tag":""},{"Id":3519,"ExternalId":831,"Name":"ANKER STUDENTBOLIGER","ShortName":"ANKER STUDENTBOLIGER","Address":"STORGT. 53 A, 0182 OSLO","Telephone":"4722363930","Latitude":59.917203,"Longitude":10.758034,"CurrentState":"Open","OpeningHours":["7:00-23:00","7:00-23:00","7:00-23:00","7:00-23:00","7:00-0:00","9:00-0:00","9:00-23:00"],"Tag":""},{"Id":3520,"ExternalId":834,"Name":"ABELHAUGEN, NATIONALTH. JBST","ShortName":"ABELHAUGEN, NATIONAL","Address":"JOHANNE DYBVADS PLASS 1, 0161 OSLO","Telephone":"4722836044","Latitude":59.914511,"Longitude":10.733243,"CurrentState":"Open","OpeningHours":["5:30-23:00","5:30-23:00","5:30-23:00","5:30-23:00","5:30-0:00","9:00-0:00","11:00-23:00"],"Tag":""},{"Id":3522,"ExternalId":836,"Name":"MAJORSTUHUSET","ShortName":"MAJORSTUHUSET","Address":"VALKYRIEG 8, 0366 OSLO","Telephone":"4722465618","Latitude":59.929734,"Longitude":10.715868,"CurrentState":"Open","OpeningHours":["6:00-23:00","6:00-23:00","6:00-23:00","6:00-23:00","6:00-23:00","8:00-23:00","9:00-22:00"],"Tag":""},{"Id":3523,"ExternalId":837,"Name":"NATIONAL VEST.","ShortName":"NATIONAL VEST.","Address":"JOH.DYBVADSPL 1, 0161 OSLO","Telephone":"4722835401","Latitude":59.914448,"Longitude":10.73324,"CurrentState":"Open","OpeningHours":["5:30-1:00","5:30-1:00","5:30-1:00","5:30-1:00","5:30-4:00","6:30-4:00","9:00-1:00"],"Tag":""},{"Id":3524,"ExternalId":838,"Name":"GRAND HOTEL","ShortName":"GRAND HOTEL","Address":"KARL JOHANGS.31, 0159 OSLO","Telephone":"4722427396","Latitude":59.913673,"Longitude":10.739296,"CurrentState":"Open","OpeningHours":["7:30-0:00","7:30-0:00","7:30-0:00","7:30-0:00","7:30-2:00","9:00-2:00","10:00-23:00"],"Tag":""},{"Id":3525,"ExternalId":839,"Name":"SKILLEBEKK","ShortName":"SKILLEBEKK","Address":"MUNKEDAMSVN. 100, 0270 OSLO","Telephone":"4722444854","Latitude":59.912653,"Longitude":10.710439,"CurrentState":"Open","OpeningHours":["7:00-19:00","7:00-19:00","7:00-19:00","7:00-19:00","7:00-19:00","9:00-18:00","11:00-18:00"],"Tag":""},{"Id":3526,"ExternalId":840,"Name":"STORO","ShortName":"STORO","Address":"VITAMINVN. 7-9, 0485 OSLO","Telephone":"4722153105","Latitude":59.946636,"Longitude":10.773852,"CurrentState":"Open","OpeningHours":["9:00-21:00","9:00-21:00","9:00-21:00","9:00-21:00","9:00-21:00","9:00-19:00","0:00-0:00"],"Tag":""},{"Id":3527,"ExternalId":841,"Name":"WALDEMAR THRANESGT.","ShortName":"WALDEMAR THRANESGT.","Address":"Waldemar Thranesgt. 72, 0175 OSLO","Telephone":"4722870292","Latitude":59.928209,"Longitude":10.750495,"CurrentState":"Open","OpeningHours":["7:00-22:00","7:00-22:00","7:00-22:00","7:00-22:00","7:00-23:00","9:00-23:00","10:00-22:00"],"Tag":""},{"Id":3528,"ExternalId":844,"Name":"GLASSMAGASINET","ShortName":"GLASSMAGASINET","Address":"STORTORVET 9, 0155 OSLO","Telephone":"4722822313","Latitude":59.913035,"Longitude":10.74564,"CurrentState":"Open","OpeningHours":["7:00-22:00","7:00-22:00","7:00-22:00","7:00-22:00","7:00-3:00","9:00-3:00","12:00-21:00"],"Tag":""},{"Id":3529,"ExternalId":846,"Name":"SAGA ","ShortName":"SAGA ","Address":"OLAV V`S GT. 1, 0161 OSLO","Telephone":"4722832422","Latitude":59.913785,"Longitude":10.73243,"CurrentState":"Open","OpeningHours":["8:00-21:00","8:00-21:00","8:00-21:00","8:00-21:00","8:00-23:00","9:00-0:00","11:00-21:00"],"Tag":""},{"Id":3530,"ExternalId":847,"Name":"LYSAKER TORG","ShortName":"LYSAKER TORG","Address":"BYGG A, LYSAKER T. 25, 1366 LYSAKER","Telephone":"4767105492","Latitude":59.912479,"Longitude":10.634488,"CurrentState":"Open","OpeningHours":["7:30-18:00","7:30-18:00","7:30-18:00","7:30-18:00","7:30-17:00","0:00-0:00","0:00-0:00"],"Tag":""},{"Id":3531,"ExternalId":850,"Name":"OSLO CITY","ShortName":"OSLO CITY","Address":"STENERSG. 1, 0055 OSLO","Telephone":"4722176413","Latitude":59.913163,"Longitude":10.752778,"CurrentState":"Open","OpeningHours":["8:00-22:00","8:00-22:00","8:00-22:00","8:00-22:00","8:00-22:00","9:00-20:00","0:00-0:00"],"Tag":""},{"Id":3532,"ExternalId":851,"Name":"SJØLYST","ShortName":"Sjølyst","Address":"KARENSLYST A 11, 0277 OSLO","Telephone":"4722444380","Latitude":59.92076,"Longitude":10.68268,"CurrentState":"Open","OpeningHours":["7:30-21:00","7:30-21:00","7:30-21:00","7:30-21:00","7:30-21:00","9:00-19:00","11:00-19:00"],"Tag":""},{"Id":3533,"ExternalId":852,"Name":"STORTORVET","ShortName":"STORTORVET","Address":"STORTORVET 8, 0155 OSLO","Telephone":"4722334710","Latitude":59.913076,"Longitude":10.745186,"CurrentState":"Open","OpeningHours":["7:00-0:00","7:00-0:00","7:00-0:00","7:00-0:00","7:00-2:00","9:00-2:00","12:00-0:00"],"Tag":""},{"Id":3534,"ExternalId":854,"Name":"Narvesen Jernbanetorget","ShortName":"Jernbanetorget","Address":"T-BANEST.AVGANG, 0154 OSLO","Telephone":"4722177211","Latitude":59.910859,"Longitude":10.749502,"CurrentState":"Open","OpeningHours":["6:30-23:00","6:30-23:00","6:30-23:00","6:30-23:00","6:30-23:00","9:00-23:00","12:00-21:00"],"Tag":""},{"Id":3535,"ExternalId":855,"Name":"Narvesen Nedre Slottsgate","ShortName":"Nedre Slottsgate","Address":"NEDRE SLOTTSGT.17, 0157 OSLO","Telephone":"4722425190","Latitude":59.912454,"Longitude":10.742869,"CurrentState":"Open","OpeningHours":["6:30-21:30","6:30-21:30","6:30-21:30","6:30-21:30","6:30-21:30","8:00-21:30",null],"Tag":""},{"Id":3536,"ExternalId":859,"Name":"Narvesen Grønland T-bane","ShortName":"Grønland T-bane","Address":", 0188 OSLO","Telephone":"4722172801","Latitude":59.91293,"Longitude":10.7597,"CurrentState":"Open","OpeningHours":["6:30-20:00","6:30-20:00","6:30-20:00","6:30-20:00","6:30-20:00","11:00-19:00","12:00-18:00"],"Tag":""},{"Id":3537,"ExternalId":862,"Name":"Narvesen Fr. Stangs gt","ShortName":"Fr. Stangs gt","Address":"Fr.Stangsgt. 41, 0272 OSLO","Telephone":"4722563837","Latitude":59.918531,"Longitude":10.709148,"CurrentState":"Open","OpeningHours":["8:00-21:00","8:00-21:00","8:00-21:00","8:00-21:00","8:00-21:00","9:00-21:00","11:00-21:00"],"Tag":""},{"Id":3538,"ExternalId":864,"Name":"Narvesen Galleriet","ShortName":"Galleriet","Address":"Schweigaardsgt. 6, 0185 OSLO","Telephone":"4722176311","Latitude":59.911798,"Longitude":10.756574,"CurrentState":"Open","OpeningHours":["6:00-21:00","6:00-21:00","6:00-21:00","6:00-21:00","6:00-21:00","9:00-21:00","9:00-21:00"],"Tag":""},{"Id":3539,"ExternalId":868,"Name":"Narvesen Sparebanken1","ShortName":"Sparebanken1","Address":"Hammersborggata 2, 0181 OSLO","Telephone":"4793899358","Latitude":59.914897,"Longitude":10.752001,"CurrentState":"Open","OpeningHours":["6:00-21:00","6:00-21:00","6:00-21:00","6:00-21:00","6:00-0:00","8:00-0:00","11:00-21:00"],"Tag":""},{"Id":3540,"ExternalId":870,"Name":"Narvesen Jernbanetorget","ShortName":"Jernbanetorget","Address":"JERNBANETORGET 4, 0154 OSLO","Telephone":"4722425960","Latitude":59.910906,"Longitude":10.749382,"CurrentState":"Open","OpeningHours":["6:00-23:00","6:00-23:00","6:00-23:00","6:00-23:00","6:00-23:00","7:00-23:00","8:00-23:00"],"Tag":""},{"Id":3541,"ExternalId":872,"Name":"Narvesen Flytogterm Oslo S","ShortName":"Flytogterm Oslo S","Address":"OSLO SENTRALSTASJON, 0154 OSLO","Telephone":"4722171876","Latitude":59.9105026287767,"Longitude":10.7526998408139,"CurrentState":"Open","OpeningHours":["6:00-23:30","6:00-23:30","6:00-23:30","6:00-23:30","6:00-23:30","7:00-22:00","8:00-23:30"],"Tag":""},{"Id":3543,"ExternalId":880,"Name":"Narvesen Indekshuset","ShortName":"Indekshuset","Address":"Henrik Ibsensgt. 100, 0255 OSLO","Telephone":"4722436485","Latitude":59.914649,"Longitude":10.718504,"CurrentState":"Open","OpeningHours":["7:00-21:00","7:00-21:00","7:00-21:00","7:00-21:00","7:00-21:00","10:00-18:00","11:00-18:00"],"Tag":""},{"Id":3545,"ExternalId":884,"Name":"Narvesen Helserådet","ShortName":"Helserådet","Address":"ST. OLAVSPLASS, 0130 OSLO","Telephone":"4722202625","Latitude":59.918234,"Longitude":10.742237,"CurrentState":"Open","OpeningHours":["7:00-18:00","7:00-18:00","7:00-18:00","7:00-18:00","7:00-18:00","11:00-17:00","11:00-18:00"],"Tag":""},{"Id":3546,"ExternalId":885,"Name":"Narvesen Ringnes Park","ShortName":"Ringnes Park","Address":"Thv. Meyersgt. 18, 0555 OSLO","Telephone":"4722716755","Latitude":59.928129,"Longitude":10.759173,"CurrentState":"Open","OpeningHours":["6:30-22:00","6:30-22:00","6:30-22:00","6:30-22:00","6:30-2:00","9:00-2:00","10:00-22:00"],"Tag":""},{"Id":8524,"ExternalId":890,"Name":"Narvesen Karl Johan","ShortName":"Narvesen Karl Johan","Address":"Karl Johans gate 3. 0154 Oslo","Telephone":"12345678","Latitude":59.9114627529942,"Longitude":10.7487548561767,"CurrentState":"Open","OpeningHours":["6:30-23:00","6:30-23:00","6:30-23:00","6:30-23:00","6:30-0:00","8:00-0:00","9:00-22:00"],"Tag":""},{"Id":3547,"ExternalId":892,"Name":"Narvesen Gunerius","ShortName":"Gunerius","Address":"STORG. 32, 0184 OSLO","Telephone":"4722170893","Latitude":59.914412,"Longitude":10.753092,"CurrentState":"Open","OpeningHours":["8:00-20:00","8:00-20:00","8:00-20:00","8:00-20:00","8:00-20:00","10:00-18:00",null],"Tag":""},{"Id":3548,"ExternalId":894,"Name":"Narvesen Havnelageret","ShortName":"Havnelageret","Address":"LANGKAIA, 0150 OSLO","Telephone":"4722332517","Latitude":59.907844,"Longitude":10.748291,"CurrentState":"Open","OpeningHours":["7:00-17:00","7:00-17:00","7:00-17:00","7:00-17:00","7:00-17:00",null,null],"Tag":""},{"Id":3549,"ExternalId":897,"Name":"Narvesen Skullerud Tbane","ShortName":"Skullerud Tbane","Address":", 0694 OSLO","Telephone":"4722742044","Latitude":59.866786,"Longitude":10.839225,"CurrentState":"Open","OpeningHours":["7:00-19:00","7:00-19:00","7:00-19:00","7:00-19:00","7:00-19:00","9:00-18:00","10:00-18:00"],"Tag":""},{"Id":3551,"ExternalId":898,"Name":"Narvesen Jekta","ShortName":"Jekta","Address":"Karlsøyvn. 10, 9015 Tromsø","Telephone":"4777670699","Latitude":59.2146173,"Longitude":10.9398386,"CurrentState":"Open","OpeningHours":["9:00-18:00","9:00-18:00","9:00-18:00","9:00-18:00","9:00-18:00","9:00-18:00","9:00-18:00"],"Tag":""},{"Id":3552,"ExternalId":899,"Name":"Narvesen Nardo Centeret","ShortName":"Nardo Centeret","Address":"Nardocenteret, Trondheim Hans Bauchv. 1, Trondheim","Telephone":"4773944380","Latitude":63.403,"Longitude":10.428,"CurrentState":"Open","OpeningHours":["9:00-18:00","9:00-18:00","9:00-18:00","9:00-18:00","9:00-18:00","9:00-18:00","9:00-18:00"],"Tag":""},{"Id":3575,"ExternalId":0,"Name":"Narvesen 227","ShortName":"Bogstadveien 30","Address":"Bogstadveien 30, 0355 Oslo","Telephone":"123","Latitude":59.9262241919615,"Longitude":10.7211792015005,"CurrentState":"Open","OpeningHours":["9:00-18:00","9:00-18:00","9:00-18:00","9:00-18:00","9:00-18:00","9:00-18:00","9:00-18:00"],"Tag":""}]}
